CLUST,NAME,STATE,TIER,ECO3,LATITUDE,LONGITUDE,ELEVATION,PPTWT,logPPTWT,MCMT,MWMT,TD,MAT,ELEVATION_PRISM,medMax,PROP_ZERO,LOCATION,SCALE,SHAPE,EVENT10,EVENT15,EVENT20,EVENT30,EVENT50,RT_I,RT_II,RT_III,RT_IV
10.1.1.0015,KELOWNA A,BC,1,10.1.1,49.95,-119.39165,443,96.21424058362413,4.566137277708423,-2.4750382902759265,19.803915741425584,22.281910641288334,8.35512059358696,NA,0.4329449681568037,0,0.360834575130142,0.179898991498437,0,16,18,19,20,22,31,38,42,46
10.1.1.0028,PEACHLAND,BC,1,10.1.1,49.7833,-119.7167,345,91.04885823587884,4.511396266126609,-1.5097511613619834,20.450789130388884,21.94923154283928,9.107863365582483,NA,0.38101936365387523,0.03333333333333333,0.303709304665278,0.153893488421612,0,13,15,16,17,19,27,33,36,39
10.1.1.0030,PENTICTON A,BC,1,10.1.1,49.4667,-119.6,344,85.97799989582023,4.454091448362346,-2.363022001643068,19.6866812959903,22.04268766501694,8.455084875424452,NA,0.25251980781441036,0,0.223198843153505,0.119469168393846,0.0461475458647951,11,12,13,14,15,23,29,32,36
10.1.1.0031,PRINCETON CS,BC,1,10.1.1,49.4667,-120.5167,699.5,149.87192466194426,5.009781093783988,-5.4136190778491695,17.227208487356616,22.64196666029437,6.155504618779378,NA,1.0046315288679228,0,0.866322168715846,0.313254083646753,0.0349824491966984,33,36,39,42,45,61,77,86,96
10.1.2.0002,OLIVER,BC,1,10.1.2,49.175,-119.55834999999999,306,84.11564070269357,4.43206316117442,-2.367402865575733,21.085840777634992,23.446264109524414,9.259744299912409,NA,0.09356215910828826,0.21212121212121213,0.112159091555768,0.0894719863491541,0.119364265061626,7,8,8,9,11,19,26,30,34
10.1.2.0006,NEZPERCE 0.2 WNW,ID,1,10.1.2,46.23375,-116.24295000000001,986.5,108.62509286292143,4.687899562180191,-2.2646999861708688,18.79827982673656,21.062980163382747,7.844120124809829,986.601199614083,0.43414454003932923,0.015151515151515152,0.3672718109577,0.221682039378847,0.0792752935330375,19,21,23,26,29,43,56,63,72
10.1.2.0009,PENDLETON 1.0 WNW,OR,1,10.1.2,45.672399999999996,-118.80215000000001,333.15,104.87109642761338,4.652723913330435,1.016705262176197,22.696513224557492,21.679807930218598,11.42334711978732,340.86006602529733,0.17522599539560202,0.13953488372093023,0.16787773235021,0.155434201330261,0.0999954796384435,11,13,14,16,18,30,40,46,53
10.1.2.0010,RITZVILLE 0.2 ESE,WA,1,10.1.2,47.1216,-118.37209999999999,567.8,106.00405673436944,4.663477200603126,-2.272379495002353,20.678828320595425,22.951207765518454,9.050369688658197,567.8108153158537,0.2808048307540458,0,0.224719009497457,0.140369150330124,0.164746726720536,13,15,16,18,21,36,50,60,72
10.1.2.0012,WENATCHEE 0.6 N,WA,1,10.1.2,47.43165,-120.31845,202.85000000000002,97.41608511091525,4.578985595319628,-1.14636415579555,23.49706783966098,24.643432165977224,11.168975756475195,204.2762233712077,0.35296031907108216,0,0.276042035510324,0.173753569202536,0.0895617738122507,15,17,18,20,23,35,45,52,61
10.1.2.0013,WENATCHEE 1.0 WSW,WA,1,10.1.2,47.426249999999996,-120.34725,259.05,114.95542972704132,4.744324205682085,-1.5178519886437167,22.938784888095746,24.45663698414236,10.666847838610728,271.3268785039982,0.3341450227090108,0,0.285287069728117,0.189950542532971,0.0910722572939534,16,18,19,22,25,38,49,57,65
10.1.2.0032,COTTONWOOD,ID,1,10.1.2,46.0167,-116.3333,1040,107.75979505874393,4.679904630269787,-2.299840592186219,18.829639755810792,21.12947963654072,7.7898797960723245,1025.9920006453192,0.8118145832822802,0,0.593692394273661,0.340651995300295,0.060275971353346,30,33,36,39,44,64,82,93,105
10.1.2.0035,GRANGEVILLE,ID,1,10.1.2,45.9414,-116.1175,1005.8,106.30777601894323,4.666338434308795,-1.9434480411861996,19.069471751614245,21.012920363765243,8.072911702790858,1007.1751991343815,0.5122491535304099,0.011764705882352941,0.417682248681156,0.232043763010965,0.0547870233068607,20,23,24,27,30,43,54,61,69
10.1.2.0038,LEWISTON,ID,1,10.1.2,46.4167,-117.025,220.85000000000002,63.73892456541621,4.154782809026539,1.7246617878684045,24.144681194659125,22.420019999028185,12.494661649632231,229.53779126267534,0.14423029377034124,0.058823529411764705,0.138077024941306,0.0643609014206251,0.171789237792039,6,7,8,9,10,19,25,30,36
10.1.2.0039,MOSCOW U OF I,ID,1,10.1.2,46.7281,-116.9558,810.8,215.26723469658307,5.3718802083793555,-1.5713964516623244,18.80704353203482,20.378439618008837,8.382094392639305,805.2505610449921,0.500896930172565,0.02247191011235955,0.43654732028208,0.281989297424316,0.116376703201129,24,27,30,33,38,61,83,96,111
10.1.2.0041,POTLATCH 3 NNE,ID,1,10.1.2,46.9603,-116.855,841.2,215.38346097547264,5.372419978930661,-2.2335359947231868,18.158463931601485,20.39199943556388,7.757071835068857,822.8640024466179,0.49214433736903523,0.02702702702702703,0.45063647683339,0.26558689618652,0.132553304902848,24,27,29,33,37,62,85,99,117
10.1.2.0043,ARLINGTON,OR,1,10.1.2,45.7211,-120.2064,84.4,100.53641625425551,4.61052001265455,1.5710185925627056,23.96467622355855,22.39365720926969,12.39753287885528,113.75004231300251,0.16272055691998294,0.12857142857142856,0.152393011590243,0.0903666693702653,0.127394506683993,8,9,10,11,12,21,28,32,38
10.1.2.0046,CONDON,OR,1,10.1.2,45.2408,-120.1789,878.1,116.95306310746643,4.761772684285881,-0.8449532796467644,19.25034636398982,20.095300007869632,8.775599982048472,881.4186571018527,0.4214165817330878,0.010638297872340425,0.348934230558946,0.235459290303238,0.0960325716883328,20,22,24,27,30,47,63,73,85
10.1.2.0047,DUFUR,OR,1,10.1.2,45.4539,-121.1303,405.4,149.3778705252158,5.006479139406343,0.43026334274494,20.270661260367213,19.84039749327617,10.13926092637593,431.79674099690124,0.413990178923114,0.021052631578947368,0.315649285005676,0.227600280178188,0.0803500564281919,18,21,22,25,28,43,56,65,73
10.1.2.0048,ECHO,OR,1,10.1.2,45.75,-119.1833,200.9,87.80328303080627,4.475098892092415,1.1000400237107282,22.979959542399488,21.87991916010722,11.650039619352818,242.97999994470496,0.2164498233022094,0.125,0.212981010540006,0.14326834434709,0.111997862774548,12,13,14,16,18,30,40,47,54
10.1.2.0051,HEPPNER,OR,1,10.1.2,45.3653,-119.5639,574.5,98.47434195381778,4.5897960264667095,0.7030436844233326,20.710164573350628,20.007120272483526,10.312732750984052,619.9760950409562,0.22911394357896692,0.030303030303030304,0.195567600695015,0.128437482266019,0.10466624191842,11,12,13,15,17,27,36,41,47
10.1.2.0052,HERMISTON 1 SE,OR,1,10.1.2,45.8289,-119.2636,195.1,81.14700128012544,4.396262340475924,1.1852755216814206,23.226744248244238,22.041468298946633,11.764148847174772,183.19180572866117,0.18554865748707455,0.08955223880597014,0.157935631783942,0.102421889103678,0.115171920869346,9,10,11,12,14,23,30,34,39
10.1.2.0053,IONE 18 S,OR,1,10.1.2,45.3167,-119.8814,659.9,105.83869924748534,4.661916229930399,0.2195056000623289,20.378039558001493,20.158534656199485,9.867372624953177,696.0980772377742,0.2635358772463569,0.0851063829787234,0.228353051304472,0.152318632009367,0.105356215457546,12,14,15,17,20,32,42,48,57
10.1.2.0054,KENT,OR,1,10.1.2,45.1967,-120.6994,826,110.88492459602288,4.708492948200127,-0.6549600235960087,20.030416141147096,20.685376011678372,9.294885194836857,818.9879992647698,0.3071902998296462,0,0.259571790503009,0.146332466292351,0.0966065594530781,13,15,16,18,20,31,40,46,52
10.1.2.0056,MIKKALO 6 W,OR,1,10.1.2,45.4667,-120.35,472.4,99.8625225525862,4.603794465644522,0.49048002103427607,22.040840931988168,21.550361146034536,10.950719827919132,456.85199644296006,0.21994645934544976,0.08823529411764706,0.182112970083677,0.107620204901308,0.115403658377419,9,11,11,13,15,24,32,37,42
10.1.2.0057,MILTON FREEWATER,OR,1,10.1.2,45.9428,-118.4089,295.7,130.05324331209226,4.867943930546337,1.073400051277641,23.234186906918158,22.160787132206018,11.798252497443116,297.29075095855114,0.17099696366134445,0.15492957746478872,0.145009643140072,0.102044562084525,0.0932146667593781,8,9,10,11,13,21,27,31,36
10.1.2.0058,MORGAN 3 NE,OR,1,10.1.2,45.5833,-119.8833,289.9,85.06179881537787,4.443378037208015,1.079641326860018,22.69892284896044,21.619281641313446,11.44956109630689,294.1157579033049,0.2163799858821583,0.10256410256410256,0.187216190794317,0.10473245706593,0.116215451032743,9,10,11,13,14,24,31,36,41
10.1.2.0059,MORO,OR,1,10.1.2,45.4825,-120.7236,570,110.46199487942008,4.704671524054852,-0.2679039922309837,20.106384657230173,20.374288579246876,9.649568095936143,565.385596259284,0.2771873476091025,0.07368421052631578,0.250789371549827,0.15126184120581,0.102246503765264,13,15,16,18,20,32,42,48,55
10.1.2.0060,PENDLETON BRANCH EXP STN,OR,1,10.1.2,45.7206,-118.6264,453.2,142.35001345324875,4.958288908232287,0.6869600103644786,21.92508484445286,21.238125275120865,10.885505639258845,452.6922232818026,0.2762035580206064,0.037037037037037035,0.206671325595888,0.132860123850526,0.0823141327856326,11,12,14,15,17,27,34,39,44
10.1.2.0061,PENDLETON,OR,1,10.1.2,45.69085,-118.85249999999999,461,105.51593227180526,4.65886195782271,0.6554175707337995,22.29842385764112,21.64300683387774,11.114198753534396,449.07416498491136,0.14140657932638756,0.03296703296703297,0.132317644415796,0.0912223385734005,0.106667723769934,8,9,9,10,12,20,26,30,35
10.1.2.0062,PILOT ROCK 1 SE,OR,1,10.1.2,45.4756,-118.8253,524.3,99.42379978641839,4.59939151947368,0.5904636548291278,21.461851029224956,20.871387191616545,10.611825584483803,527.9406723929153,0.24232443527277162,0.014705882352941176,0.211114259647331,0.108114038242033,0.0755337697127756,10,11,12,13,15,23,29,33,37
10.1.2.0064,THE DALLES,OR,1,10.1.2,45.6069,-121.2047,45.7,182.50900499818206,5.206799514261039,2.5408173107687997,22.756567276050937,20.215750374648813,12.42738742156228,53.88031635127547,0.3115543223943906,0.12,0.288169564466289,0.220894665188014,0.0980707847445172,17,19,21,24,27,43,57,67,78
10.1.2.0065,THE DALLES 2,OR,1,10.1.2,45.609700000000004,-121.1747,78.3,189.54439322253367,5.243359176240165,2.4892429753075525,22.865185228756236,20.375941793228428,12.455008411629429,54.71739142067137,0.24728900281034644,0.07692307692307693,0.204460252035489,0.158691581749273,0.103458898896898,12,14,15,17,20,32,43,49,56
10.1.2.0066,UMATILLA,OR,1,10.1.2,45.9167,-119.35,82,84.28928089867385,4.434254702696144,1.3200800542220723,23.620080835551608,22.30000113705001,12.020040455697542,86.97999946633921,0.15612240738634012,0.10526315789473684,0.136521841726222,0.0734815811122575,0.117553757715717,7,7,8,9,10,17,23,26,30
10.1.2.0067,WASCO,OR,1,10.1.2,45.5958,-120.7,386.2,127.91136361236995,4.851337552271934,0.41031998900350564,20.589679209324537,20.179358415896758,10.239999772495635,397.9600008949687,0.3042959933852956,0.13432835820895522,0.266433483334745,0.184817570303168,0.105560657304248,15,17,18,20,23,37,49,57,66
10.1.2.0068,WESTON 2 SE,OR,1,10.1.2,45.8,-118.4,641,223.45001165184144,5.409187727524643,-1.0999999914271585,19.479999601509576,20.57999995056449,8.79000001178653,764.9999931234868,0.43883382638893353,0,0.355513524005596,0.206002277518181,0.0653848481217257,18,20,22,24,27,39,50,56,64
10.1.2.0069,ANATONE,WA,1,10.1.2,46.1333,-117.1333,1089.1,114.62227940909752,4.741642195586974,-1.9609198632278284,18.77944085051365,20.740361658855658,7.729280670994646,1095.0919337528462,0.9615505414152341,0,0.84049809233796,0.536636211175975,0.0918093565723334,46,52,56,62,70,112,148,170,193
10.1.2.0072,BICKLETON,WA,1,10.1.2,45.9981,-120.3006,919,144.62378466446359,4.974135782121323,-1.8236025885689378,19.187686008691045,21.011288681560895,8.221077461286502,926.6341779830723,0.46495724287612294,0.08108108108108109,0.361675961466271,0.219425619718393,0.10944257912983,19,21,23,26,29,46,61,71,84
10.1.2.0074,CHELAN,WA,1,10.1.2,47.83385,-120.01695000000001,352.65,110.69271065789972,4.706695030062383,-2.1749630668386555,22.98286125105507,25.15782421996085,10.295141182176717,372.1052165055227,0.4053955981690843,0,0.343896803351748,0.206622710187515,0.101147276135318,18,20,22,25,28,43,57,66,77
10.1.2.0076,CHIEF JOSEPH DAM,WA,1,10.1.2,47.9967,-119.6483,254.2,109.94077785699302,4.699941837693941,-2.0834597059411926,23.507187736665905,25.590647327998283,10.586155817057282,272.81098897976227,0.2866698084175242,0.047619047619047616,0.259696214051903,0.13807908273402,0.122090006041657,13,14,16,17,20,32,42,48,56
10.1.2.0078,COLFAX,WA,1,10.1.2,46.8833,-117.35,603.5,179.08883639638321,5.187881975445481,-1.2989199810836332,19.302039183730535,20.60095845528033,8.791399926163246,705.7720060730207,0.36618109674497895,0,0.326028006365707,0.190188333366396,0.170452972380669,18,20,22,25,29,50,72,87,104
10.1.2.0079,CONCONULLY,WA,1,10.1.2,48.5558,-119.7492,703.8,119.49602252257394,4.783283086487705,-4.522035166504885,19.987048130294244,24.50908366413922,7.840188793278084,716.2425598502278,0.7728249524482453,0.03333333333333333,0.718077935311904,0.378148541421847,0.102104463766628,35,39,42,47,52,82,110,126,146
10.1.2.0080,CONNELL 1 W,WA,1,10.1.2,46.6644,-118.8828,310.9,76.19098777052072,4.333243184969992,-0.41880003150755146,22.58529432930862,23.00409417578237,11.00286555793953,302.6254122359313,0.14224967946224873,0.16666666666666666,0.129496382653868,0.0758147281284058,0.129521293208319,6,7,8,9,10,18,24,28,32
10.1.2.0082,COULEE DAM 1 SW,WA,1,10.1.2,47.9544,-118.9997,524,84.65620298462983,4.438598383917239,-2.0458864308569695,21.962393577103175,24.008279708754216,9.74383393037294,529.7655085947258,0.23201357429743247,0.04838709677419355,0.195416592905703,0.122566663254816,0.139404037288883,11,12,13,15,17,29,39,46,54
10.1.2.0084,DAVENPORT,WA,1,10.1.2,47.6575,-118.1614,722.1,113.60287815508971,4.732708841838372,-3.364423905833232,19.36383214448318,22.728256656471828,7.8162080957309685,732.6159989220004,0.6920612667261409,0,0.528334475992257,0.393235226353942,0.144642033638793,33,38,42,47,54,96,133,157,185
10.1.2.0085,DAYTON 1 WSW,WA,1,10.1.2,46.3153,-118.0022,474.6,156.48400246390497,5.052953784077395,0.15625278046650198,21.60656442390316,21.45031107407683,10.599634194170095,511.75488364862207,0.2594078605036406,0.021052631578947368,0.212635443468706,0.140736969223204,0.161056283306057,12,14,16,18,20,36,49,59,71
10.1.2.0086,ELLENSBURG,WA,1,10.1.2,46.9692,-120.54,451.1,88.78347023707133,4.486200486691885,-2.088847994286575,20.91695988921323,23.00580790600662,9.377312091280372,450.8336003672746,0.37440862664764885,0.017241379310344827,0.311829085225259,0.19784669313116,0.0856132544705677,17,19,20,23,26,39,50,58,65
10.1.2.0087,ELLENSBURG #2,WA,1,10.1.2,47.03165,-120.53444999999999,529,86.44163319111792,4.4593690761394935,-2.3131799418002705,20.535900163735903,22.84907970451617,9.076016331152733,530.6700012541569,0.3666137322964914,0,0.286196625888288,0.183045842674787,0.0877736433708309,15,17,19,21,24,37,47,54,63
10.1.2.0091,EPHRATA,WA,1,10.1.2,47.3167,-119.5667,415.1,73.70939463251054,4.300130262340319,-2.1821917382781506,22.778128208935556,24.960320183743917,10.22812674919413,469.22310180954696,0.21472463425903113,0.02,0.185899200245223,0.110088689370589,0.157351815014144,10,11,13,14,16,28,38,45,54
10.1.2.0093,GOLDENDALE,WA,1,10.1.2,45.8124,-120.82974999999999,509.05,187.84863826395002,5.235478781109991,-0.3114467148118691,20.035337212643373,20.346783405170743,9.561754398231482,501.2225671567178,0.45731799677026796,0.04411764705882353,0.358139149260764,0.238360948542374,0.104381758813541,20,23,25,27,31,49,65,76,87
10.1.2.0096,HARRINGTON 1 N,WA,1,10.1.2,47.48305,-118.25095,661.6,110.33164939763452,4.703490765418852,-2.9156600504982584,19.70300547452123,22.618665396052283,8.27213227858169,665.5663343486935,0.3426347010483171,0,0.275714452063314,0.20348656897235,0.190104322699951,18,21,23,26,30,58,85,104,128
10.1.2.0097,HARTLINE,WA,1,10.1.2,47.6892,-119.1064,580.9,86.79387644643447,4.46353607132555,-2.6308602219545465,21.36299992152124,23.993860009625614,9.231413206853126,581.936000899589,0.22794463628933231,0.05263157894736842,0.193899886441102,0.0958973189301026,0.175793914205287,9,11,12,13,15,27,37,44,53
10.1.2.0098,HATTON 9 SE,WA,1,10.1.2,46.7225,-118.6525,458.7,85.71920172917419,4.451076858023216,-1.022599977987634,22.094100243680217,23.116699825892862,10.412299699839112,443.59999868702477,0.19378261081685993,0.023809523809523808,0.157636863497036,0.0966733824088504,0.136639135670101,9,10,11,12,14,23,31,36,42
10.1.2.0099,ICE HARBOR DAM,WA,1,10.1.2,46.2447,-118.8786,112.2,90.9342195854362,4.510136383427856,1.0757199806313833,23.405919756214363,22.33019953191919,11.995267611036098,147.5787485777211,0.08306344761959689,0.22857142857142856,0.118710839999992,0.0782595063642493,0.119220311918589,6,7,8,9,10,17,23,27,31
10.1.2.0100,KAHLOTUS 5 SSW,WA,1,10.1.2,46.5833,-118.6,473,95.03059876796937,4.554198932034367,-0.31995999392865965,22.599920381729373,22.91988007668116,10.909999847413678,446.9960001139361,0.17350490114383088,0.08928571428571429,0.150787012558403,0.0979387796570003,0.139708810686442,8,9,10,12,13,24,32,37,43
10.1.2.0101,KENNEWICK,WA,1,10.1.2,46.2111,-119.1011,118.9,72.45916301479201,4.283023134403696,1.1426399880838305,23.77396566016216,22.631326036999795,12.159556317506247,107.38035177001413,0.15211796939522915,0.13114754098360656,0.141487030829836,0.0949559153607076,0.117422113977442,8,9,10,11,12,21,28,32,37
10.1.2.0103,LACROSSE,WA,1,10.1.2,46.8167,-117.8831,449.9,140.25527989858756,4.943464190029941,-0.4913843430110774,21.63810180162605,22.12948592392822,10.368101146837928,454.24931487899465,0.18278260601831472,0.020833333333333332,0.168802172859514,0.102278285246174,0.20060641672187501,10,11,12,14,16,31,44,53,66
10.1.2.0104,LIND 3 NE,WA,1,10.1.2,47.0022,-118.5658,496.8,85.64645263658426,4.450227806943179,-1.7518073921336765,21.303677745005075,23.05548480033916,9.705552292418027,500.64601796846546,0.21686269516238954,0.024390243902439025,0.168320619942995,0.107230100465619,0.145635058687743,9,11,12,13,15,27,36,42,48
10.1.2.0108,MANSFIELD,WA,1,10.1.2,47.8167,-119.6333,691.9,102.41967915417503,4.629078873381333,-3.4099192803165375,20.950081080566704,24.36000012152235,8.720040907676154,687.9839194366372,0.7161222288537361,0,0.563895895935216,0.309165937981937,0.101539368722729,28,32,34,38,43,66,88,101,116
10.1.2.0110,METHOW 2 S,WA,1,10.1.2,48.120400000000004,-120.01225,350.5,117.7350372628309,4.767965602551417,-3.567846759027729,22.11235335916211,25.680200428708126,9.254170708383826,402.5978738651851,0.6310415756240041,0,0.510365697091182,0.310062220893949,0.0789832854736095,27,30,32,36,40,60,79,90,104
10.1.2.0111,MILL CREEK DAM,WA,1,10.1.2,46.08756666666667,-118.27296666666668,366.3,153.8611688388984,5.035864406779968,0.8718846992912271,23.05000183747737,22.178117363887438,11.622935058590643,369.827050460378,0.17646799269566105,0.07246376811594203,0.160347503329523,0.102200559689468,0.113644485855337,9,10,11,12,14,23,30,34,39
10.1.2.0115,MOXEE CITY 10 E,WA,1,10.1.2,46.5053,-120.1678,472.4,64.80629154953267,4.1714026904588994,-1.8922950936589562,21.16077994660234,23.05307522802454,9.72998509489304,475.51552239412104,0.18965445315640506,0.037037037037037035,0.155998720216752,0.0853882132985758,0.0976126080964493,8,9,9,10,12,19,25,28,32
10.1.2.0117,NESPELEM 2 S,WA,1,10.1.2,48.1333,-118.9833,576.1,103.57216890497152,4.640268653821815,-2.680158949497986,21.649880729708077,24.330039913813845,9.409800963837252,537.0398244584072,0.38760852080203034,0,0.302432345756881,0.171413684952911,0.10181429399025,15,17,19,21,23,37,48,55,63
10.1.2.0118,ODESSA,WA,1,10.1.2,47.3331,-118.6961,470.3,101.1354878927855,4.616461082166909,-2.022651008178769,21.307224388753184,23.32987588356903,9.579377969161015,475.50151652534566,0.23260404799871928,0.07575757575757576,0.196989219845356,0.106287691302301,0.177148636145692,10,11,12,14,16,29,41,49,59
10.1.2.0120,OMAK 4 N,WA,1,10.1.2,48.4608,-119.5167,395,107.52924098049398,4.677762819700818,-2.8889764295046167,21.998023632168987,24.886999322011526,9.50102370093506,394.9068163856322,0.4074738589962659,0,0.353448188923248,0.245469263088944,0.125178453768319,21,24,26,29,33,54,74,87,103
10.1.2.0124,POMEROY,WA,1,10.1.2,46.4672,-117.5883,589.5,154.5226680086495,5.040340804078279,-0.647187179205931,20.51730057349565,21.164487557242282,9.65140422745277,643.1161565693051,0.21324157774846583,0.16071428571428573,0.199697767664132,0.117061684202686,0.190387754809125,10,12,13,15,17,33,46,56,68
10.1.2.0125,PRIEST RAPIDS DAM,WA,1,10.1.2,46.6461,-119.9061,130.5,77.02881014208585,4.344179509563578,0.4090372793613909,24.443632292299682,24.034594837867953,12.251888685364163,141.2433935469804,0.118158472252415,0.23076923076923078,0.118634781890377,0.0737052243383713,0.0961234300841545,6,7,7,8,9,16,21,24,27
10.1.2.0126,PROSSER,WA,1,10.1.2,46.2007,-119.7624,230,81.74892486974655,4.40364675363844,0.023845781055804066,23.137995051638953,23.11414934706571,11.505571929343073,230.02306937272556,0.16391174931450667,0.1111111111111111,0.143689374133821,0.0853292242674285,0.114186679734754,7,8,9,10,11,19,25,29,34
10.1.2.0128,PULLMAN 2 NW,WA,1,10.1.2,46.7603,-117.1861,766.6,174.9246620035671,5.164355378393805,-1.5172377300502764,18.8682568270287,20.38549512684403,8.438442369086161,777.0353111296555,0.30383298596315395,0.18571428571428572,0.328867364807625,0.198448833483366,0.156682715063508,17,19,21,24,28,48,67,80,95
10.1.2.0129,QUINCY,WA,1,10.1.2,47.2236,-119.8525,392,74.90789128974956,4.316259242647003,-1.974432016019333,22.374863516483867,24.349295257368077,10.213719958659699,392.9280004531528,0.16648150600597267,0.14285714285714285,0.184597693433826,0.117868068270108,0.134336377942966,10,11,12,14,16,27,36,42,50
10.1.2.0130,RICHLAND,WA,1,10.1.2,46.3119,-119.2633,113.7,72.72401493529004,4.286671659226485,0.9638729750689495,23.652017944558445,22.688145329079045,12.049316673138277,111.13417640489953,0.15436216983126808,0.13333333333333333,0.132606594293266,0.0874681657244022,0.115832603141578,7,8,9,10,11,20,26,30,34
10.1.2.0132,ROSALIA,WA,1,10.1.2,47.2347,-117.3636,737.6,150.15528482711824,5.011669990793744,-1.7867116883872423,19.611921239214922,21.398633139684108,8.60864499077862,723.6167994325484,0.39734176753735506,0.009615384615384616,0.319371478705626,0.202764698604352,0.19129468527453,19,21,24,27,31,58,84,102,125
10.1.2.0136,SMYRNA,WA,1,10.1.2,46.8367,-119.6633,170.7,71.19944875742401,4.265485076216948,-0.7977826373280532,23.49485676255774,24.292639422245244,11.24944087805968,245.90782653972312,0.1556681142629805,0.2,0.150128505928942,0.108741181606995,0.108625552309795,8,9,10,12,13,23,30,34,39
10.1.2.0138,SPRAGUE,WA,1,10.1.2,47.3,-117.9833,600.5,137.11012063020027,4.920784403174173,-2.1400001221469505,20.46007907441019,22.600078481301402,8.950039795069355,582.0040032323544,0.2556294673817368,0.02631578947368421,0.23951204565877,0.139533589838215,0.206609950845503,13,15,17,19,22,43,63,77,94
10.1.2.0139,SUNNYSIDE,WA,1,10.1.2,46.3236,-120.0103,227.7,64.78955458789281,4.171144395733695,-0.3161824136207626,23.102930681677122,23.419113016578706,11.422930414312596,233.9429446559403,0.1812717188068068,0.05555555555555555,0.162067890152112,0.0886800438564644,0.108076603310296,8,9,10,11,12,20,26,30,34
10.1.2.0142,TRINIDAD 2 SSE,WA,1,10.1.2,47.2167,-120,171,91.13927750209572,4.512388858462815,-0.6615600683069016,24.34804032914505,25.009600216492203,11.83816010254209,176.19600528635308,0.29810141601452267,0,0.254040706503779,0.143219682445265,0.111742831232762,13,15,16,18,20,32,42,48,55
10.1.2.0144,WALLA WALLA 3 W,WA,1,10.1.2,46.05,-118.4,244.1,126.30000311875555,4.83866005404968,1.1599999635622937,23.649999616490824,22.48999977213789,12.039999959851771,236.0000000791124,0.17712805185586253,0.06666666666666667,0.163135463908399,0.0906753122766144,0.101710151199034,8,9,10,11,12,20,26,30,35
10.1.2.0145,WAPATO,WA,1,10.1.2,46.4353,-120.4203,256.3,77.9828175927023,4.3564885151497394,-0.749080003101047,22.652199862622144,23.401279843788732,11.05789099858996,258.4468962859625,0.22403777713498194,0.014285714285714285,0.188375380672624,0.110245530637135,0.104772414948024,10,11,12,13,15,24,32,36,42
10.1.2.0146,WATERVILLE,WA,1,10.1.2,47.6497,-120.08,812,108.68241704832573,4.688430024358004,-4.683800139396109,20.174663369814063,24.858464053949035,7.686519918283923,811.7304021487763,0.7583138572339713,0.08,0.671720246223299,0.345327915906389,0.0729727855076224,31,35,37,41,46,68,89,101,113
10.1.2.0147,WHITE SWAN RS,WA,1,10.1.2,46.3833,-120.7167,296,108.1624829935931,4.683634568702687,-0.9200393801916915,21.839719998654648,22.759759432028993,10.659919847866368,293.01203192873487,0.3861290237441634,0.029411764705882353,0.327785879150582,0.18748160069885,0.102750724664918,17,19,20,23,25,40,52,60,70
10.1.2.0148,WHITMAN MISSION,WA,1,10.1.2,46.0436,-118.4628,192.6,116.08409997191303,4.754314928178868,1.1533964544017827,23.619279937661076,22.465883759908735,12.054640296894497,196.22316824671114,0.18090286138074652,0.046511627906976744,0.16213419392968,0.107317419342635,0.0994779067871654,9,10,11,12,14,23,30,34,39
10.1.2.0149,WILBUR,WA,1,10.1.2,47.7681,-118.7239,689.5,101.83762632874816,4.623379646129406,-2.9921707500066743,20.20338927355069,23.19556033770516,8.312762477414324,665.2556661086137,0.28109008739683927,0.07142857142857142,0.254814590687758,0.186391042867403,0.169101309117733,16,18,20,23,26,48,68,83,98
10.1.2.0150,WILSON CREEK,WA,1,10.1.2,47.4167,-119.1167,390.1,88.73156239717348,4.485615659135513,-1.8700798458479497,22.159721126116143,24.02980179310419,10.089801110467317,400.0318402583391,0.22067974381701438,0,0.200046744153173,0.121957641189124,0.180193117824117,11,13,14,16,19,34,47,57,68
10.1.2.0151,WINTHROP 1 WSW,WA,1,10.1.2,48.4742,-120.1886,533.1,137.8185428127153,4.925937912753991,-5.179573693408755,20.248319828878564,25.427893640848133,7.84119948768309,540.9727328496786,1.2160408263469324,0.009615384615384616,1.06111288459134,0.405024140212416,0.0375364676517714,42,46,49,53,58,79,99,111,124
10.1.2.0155,EPHRATA MUNI AP,WA,1,10.1.2,47.3078,-119.5153,381.6,72.03761887502766,4.277188466944004,-1.7916399601899498,23.0670796502654,24.858720290425154,10.547720139726922,384.6140160336343,0.18133525077670196,0,0.174043589496958,0.110523599009331,0.162874111626779,10,11,12,14,16,29,40,47,58
10.1.2.0156,LEWISTON NEZ PERCE CO AP,ID,1,10.1.2,46.3747,-117.0156,437.7,76.50456818369169,4.3373504538691305,0.5876182210243013,22.98820843515241,22.40059003035317,11.288276429193324,434.6484501229231,0.10425809603276642,0.18055555555555555,0.106183760299145,0.0735515036119881,0.171710570518146,6,7,8,9,10,20,27,32,38
10.1.2.0157,SPOKANE INTL AP,WA,1,10.1.2,47.6217,-117.5281,717.2,139.78634360274017,4.940115139783132,-2.670166954350278,20.198819374493088,22.86898633282205,8.43106599601806,718.6947512871487,0.37898919265877823,0.007751937984496124,0.294848838520778,0.181564306663431,0.144186237555029,16,18,20,23,26,43,60,71,85
10.1.2.0159,YAKIMA AIR TERMINAL,WA,1,10.1.2,46.5683,-120.5428,324.3,87.51255826790192,4.471782306126856,-1.1905599783623748,22.013627235663822,23.204187413183806,10.493893505672705,325.9160007927085,0.22769521911926768,0.06756756756756757,0.204589240484265,0.14650660827924,0.09928884772524,12,13,15,16,19,30,39,44,52
10.1.2.0160,WALLA WALLA WSO CITY,WA,1,10.1.2,46.0333,-118.3333,289.3,146.44204324428634,4.986629740929119,1.110199531001796,23.550238438411753,22.440038321834727,11.960239392868104,279.0320317747044,0.172735565956338,0,0.13769513221695,0.0938728789910554,0.103240571109735,8,9,10,11,12,21,27,31,35
10.1.2.0161,WENATCHEE PANGBORN AP,WA,1,10.1.2,47.3978,-120.2014,374.6,85.62881327884217,4.450021830234164,-2.085149366398171,23.001694886144737,25.086844878855132,10.485272947182715,374.3869450576493,0.3660428772359082,0,0.2900991820964,0.191320532922638,0.0914478408710808,16,18,20,22,25,38,50,58,66
10.1.3.0001,SODA SPRINGS 0.3 W,ID,1,10.1.3,42.6552,-111.58779999999999,1775.15,90.08408982244012,4.500701535252293,-6.699346891235111,18.49721770480481,25.19656463125726,5.4035286170121,1774.8706888418492,0.9935811709093134,0,0.743326582155947,0.399413056903109,0.0408234176693882,35,39,42,46,51,72,92,103,116
10.1.3.0003,CEDARVILLE,CA,1,10.1.3,41.53,-120.1792,1428.9,125.87670517404989,4.835302897513406,-0.8320959932446149,20.353567514824583,21.18566348642079,8.866703816345728,1428.070400236895,0.29333880238528204,0,0.239151603743383,0.14171489231256,0.112741294035904,13,14,15,17,20,31,41,47,53
10.1.3.0005,FT BIDWELL,CA,1,10.1.3,41.8714,-120.1575,1444.4,195.05621742038124,5.273287811478377,-1.0006959982911816,19.9083436160684,20.909039827648932,8.607327886312943,1432.5928027007249,0.5214513148683114,0.0136986301369863,0.436366093482837,0.223351554715736,0.110194868335631,21,24,25,28,32,49,65,76,89
10.1.3.0007,TERMO 1 E,CA,1,10.1.3,40.8667,-120.4333,1615.4,83.37132417990657,4.42330441546667,-2.170040396111289,17.96043748524105,20.13047788231364,7.060159142993113,1614.0040000779325,0.5973482224073146,0,0.503223558644501,0.269020958511112,0.0898949908799784,25,27,30,33,37,55,73,84,97
10.1.3.0014,GRACE,ID,1,10.1.3,42.5872,-111.7275,1691.6,77.11115959559322,4.345248011931683,-6.097775911937347,19.214047790475263,25.311823813420197,6.129440109578804,1693.5952006155599,0.7313893919666219,0,0.62784800561101,0.347746764403023,0.0793024262848446,31,35,37,41,46,69,91,104,120
10.1.3.0015,HOLLISTER,ID,1,10.1.3,42.3528,-114.5739,1379.2,56.47415755510844,4.033783145113252,-2.300876431482023,21.11622956055032,23.417105297673515,8.707243179032272,1375.838942760918,0.18461867113923972,0.03636363636363636,0.146768842324945,0.07279235648986,0.199463650913071,7,8,9,10,12,23,32,38,47
10.1.3.0016,IDAHO FALLS 16 SE,ID,1,10.1.3,43.3456,-111.7847,1776.4,110.03301855540317,4.700780489436293,-6.409412554821868,17.93783525997684,24.34724750715099,5.250411917847169,1766.0080282153456,0.8367018179351073,0,0.710119486284602,0.356040871483395,0.100145788396749,34,38,41,45,50,78,104,119,137
10.1.3.0019,MCCAMMON,ID,1,10.1.3,42.6522,-112.1936,1453.9,123.82210968469252,4.81884593626521,-4.795230219789812,20.621940280066653,25.417171069436613,7.555675001639,1454.1420163128014,0.674955847996906,0,0.525625607519542,0.323821756406057,0.132459046646293,29,33,36,40,46,76,104,123,145
10.1.3.0024,THREE CREEK,ID,1,10.1.3,42.0833,-115.15,1664.2,70.38148252734555,4.253930196282916,-3.610439886995375,18.139439402812904,21.749879999342077,6.4494798208805895,1684.0839983152582,0.5824362658021935,0,0.447713600619502,0.217951536582924,0.100707734891555,21,23,25,28,31,47,62,72,85
10.1.3.0025,CONTACT,NV,1,10.1.3,41.7706,-114.7528,1630.7,54.83204773324101,4.004274835668076,-3.5314540498329303,19.987397442799313,23.518851601686833,7.429171789239938,1647.693184179379,0.16502741894438466,0.08108108108108109,0.155575468869173,0.0810312846980355,0.188986824635636,8,9,10,11,13,24,33,39,47
10.1.3.0026,DENIO,NV,1,10.1.3,41.9897,-118.6336,1277.1,66.35756612396636,4.195057787795599,-1.0778845258297278,21.91359500887234,22.99147936505487,9.606591344634403,1282.6648965170211,0.16950333109561588,0.07317073170731707,0.159555758894562,0.0845104640179296,0.212225687640716,8,9,10,12,14,27,38,47,58
10.1.3.0030,JARBIDGE 4 N,NV,1,10.1.3,41.9333,-115.4333,1880.6,137.78885401443532,4.925722470071853,-3.5595666664777386,17.7217588323713,21.281325026784014,5.9113564846703595,2054.1288207133002,1.085473171760713,0,0.875147862911085,0.461830365559141,0.032288246757348,41,45,48,53,58,83,105,117,130
10.1.3.0032,MCDERMITT,NV,1,10.1.3,41.9953,-117.72,1350.3,52.32960848645953,3.9575623387291374,-2.018103983897558,21.173280149706603,23.191384565237183,8.711023845107144,1350.7080002491284,0.20808006804116075,0,0.166023386329702,0.0916045082137079,0.202340917955156,9,10,11,13,15,28,40,48,59
10.1.3.0035,SAN JACINTO,NV,1,10.1.3,41.8833,-114.6833,1585.9,44.31116417207405,3.7912366582148054,-3.0598001041252254,20.490239450000765,23.550039080153727,7.840279990546167,1578.0120317515318,0.19017659829470168,0.03225806451612903,0.177169090946819,0.0771468272610754,0.185358908729532,8,9,10,11,13,23,32,38,45
10.1.3.0036,SHELDON,NV,1,10.1.3,41.85,-119.6333,1983,100.20235890092452,4.607191730299052,-2.9290000496531654,16.56175949719152,19.49075978526329,5.58135994708005,1972.8039966471733,0.8534901764435725,0.05263157894736842,0.75360287879976,0.423917841209281,0.0969485291255664,37,42,46,51,57,90,119,138,159
10.1.3.0037,TUSCARORA,NV,1,10.1.3,41.3144,-116.2225,1880.6,108.41685956522258,4.685983607956335,-3.1290080186021343,19.279848029952703,22.408855948418992,6.880975902346836,1870.9360027395342,0.6930692286061864,0.020833333333333332,0.637862056795817,0.385838266560054,0.0698219962599909,33,37,40,44,49,74,96,109,125
10.1.3.0042,ALKALI LAKE,OR,1,10.1.3,42.9694,-119.9933,1320.4,44.59511900112011,3.7976244136003174,-1.3237715103961605,19.853907958265463,21.17767962959602,8.234382839419629,1338.552030444519,0.16662438089094583,0.11428571428571428,0.166660220115468,0.0654002979663824,0.124633823235962,7,8,8,9,10,17,22,25,29
10.1.3.0046,BROTHERS,OR,1,10.1.3,43.8094,-120.6,1414.3,67.0756026800613,4.205820381438095,-2.3384799071006723,16.898959357370114,19.23743971079034,6.538960177432477,1415.975999180474,0.33917532643614773,0,0.297162484083101,0.152672706312353,0.0812026585296367,14,16,17,19,21,32,40,45,50
10.1.3.0047,BUENA VISTA STN,OR,1,10.1.3,43.0661,-118.8683,1260.3,62.787636457598396,4.139758182398084,-2.258639993522892,19.68370695036564,21.942347149882224,8.093026783095127,1266.734687312391,0.1646178417504966,0,0.132935069992527,0.0894155128710016,0.161509154854499,8,9,10,11,13,23,32,38,44
10.1.3.0050,DANNER,OR,1,10.1.3,42.9447,-117.3389,1287.8,90.71358220341308,4.507707094569341,-2.3699998855590816,20.600000381469727,22.97000122070312,8.323639779012916,1288.0608478526688,0.24093174423066463,0.037037037037037035,0.226890503475063,0.112798109595745,0.195126965833206,11,13,14,16,18,34,47,58,71
10.1.3.0054,BURNS MUNI AP,OR,1,10.1.3,43.589150000000004,-118.94485,1262.5,95.7689968677659,4.56193868556685,-3.268059824491509,19.247160014057314,22.51521988385976,7.355940059054582,1262.8839920036198,0.37017600613449686,0.03225806451612903,0.323665462469018,0.194205435328975,0.0857441060158921,17,19,20,23,25,39,50,57,66
10.1.3.0055,HART MTN REFUGE,OR,1,10.1.3,42.5486,-119.6558,1712.4,70.91763303160955,4.261519105460232,-1.4428307400178075,17.91959948741489,19.362430481476334,7.068480010067241,1715.6129269667035,0.37334479146849375,0,0.339255589235776,0.137003658813504,0.139884033143512,15,16,18,19,22,35,46,54,63
10.1.3.0058,LAKE 2 N,OR,1,10.1.3,43.2667,-120.6333,1314.9,59.46988105818727,4.08546998368602,-1.809959941351179,18.229919539674803,20.039879002760177,7.4499199696683664,1312.0119840567356,0.30015904867406373,0,0.229908775269673,0.134489461403938,0.0683896508846988,12,13,14,15,17,27,34,38,42
10.1.3.0059,MALHEUR REFUGE HQ,OR,1,10.1.3,43.27415,-118.839,1254.5500000000002,68.80753463898424,4.23130916319503,-2.6161317669480186,19.47165154783852,22.08778365201914,7.869612143132116,1254.5827994340736,0.2600926427754044,0.018867924528301886,0.200070031625587,0.107292076322679,0.131535936862591,10,11,12,14,16,26,34,40,46
10.1.3.0062,OWYHEE DAM,OR,1,10.1.3,43.65,-117.2467,731.5,74.70068040582532,4.313489200609007,-1.3339600516015062,23.189720433889438,24.52368046069543,10.458919953128113,801.364012250971,0.13590195319009996,0.08771929824561403,0.124947638368115,0.0677866784452772,0.184461430298294,6,7,8,9,10,20,27,32,39
10.1.3.0063,PAISLEY,OR,1,10.1.3,42.6922,-120.5403,1328.9,87.81498447471287,4.475232152078294,-0.7807100578747814,19.257334979154383,20.038045663348985,8.57850965711182,1329.2375375141278,0.3038016247812711,0.015384615384615385,0.265296294604632,0.132580531125389,0.098187207371334,12,14,15,17,19,29,38,43,49
10.1.3.0064,P-RANCH SOUTH PLACE,OR,1,10.1.3,42.8081,-118.8778,1283.2,87.74298754800292,4.47441194516981,-1.2409481652512118,20.240541304104667,21.481489253543117,8.80026139774748,1293.9295649853007,0.17327711385034217,0.1282051282051282,0.157528553949733,0.0724933054536619,0.179592887716448,7,8,9,10,11,21,29,34,40
10.1.3.0065,RIVERSIDE 7 SSW,OR,1,10.1.3,43.4508,-118.2244,1030.2,81.5808660008499,4.401594749190386,-2.1781235954635387,21.641501834482384,23.819625440520266,9.169753213127269,1030.6723217110243,0.16602243235856434,0,0.166627450106534,0.102555190785817,0.149723241390854,9,11,11,13,15,26,35,40,47
10.1.3.0066,ROCKVILLE 5 N,OR,1,10.1.3,43.3636,-117.1142,1118.6,78.45118814282719,4.362476624288409,-1.964781471472291,20.863778055360875,22.82855953579014,8.828166531922065,1126.3027198441785,0.21117144776097832,0,0.154502201354507,0.079226128877822,0.184467799043746,8,9,10,11,13,24,33,39,47
10.1.3.0067,ROME 2 NW,OR,1,10.1.3,42.8592,-117.6569,1037.8,56.41078974175922,4.032660447685071,-1.681578841202806,22.31476648902013,23.99634571309653,9.799246842191817,1036.0598712377823,0.12866117946384117,0.06521739130434782,0.117665108139634,0.056786782862454,0.22063928508963,6,7,7,8,10,19,28,33,41
10.1.3.0068,SHEAVILLE 1 SE,OR,1,10.1.3,43.1211,-117.0392,1408.2,119.18247499354726,4.780655721956261,-2.6752463776004562,20.392539015793655,23.067785493331613,8.00017892278289,1427.5408619964446,0.3573437616098565,0,0.329028037481325,0.17231223996271,0.165697442028339,17,19,21,23,27,46,64,77,91
10.1.3.0070,SILVER LAKE RS,OR,1,10.1.3,43.1247,-121.0617,1336.5,94.41707043940508,4.547721887729415,-1.8573382604148687,17.850305785384165,19.707643835555793,7.399156315417977,1334.7738236832288,0.2985324061601572,0,0.236109212797565,0.141396987735244,0.0610066150404844,12,14,15,16,18,27,34,39,43
10.1.3.0071,SQUAW BUTTE-NORTHERN GREAT BAS,OR,1,10.1.3,43.4869,-119.7211,1420.4,86.7763890976843,4.463334569659876,-2.8794182376606,18.59275725761943,21.47217559073141,6.927126568030951,1458.4592977552563,0.5295505049985794,0,0.442886709128492,0.226695492598197,0.0641883430538418,21,23,25,27,30,44,56,63,72
10.1.3.0072,SUMMER LAKE 1 S,OR,1,10.1.3,42.9592,-120.7897,1277.7,112.52527898169242,4.723177898462237,-0.601158424957619,19.468075886925636,20.069233662078243,8.711091777928619,1312.1263122362298,0.3043523173594398,0.038461538461538464,0.242700062684589,0.16339496594098,0.0494376190352715,13,15,16,17,20,30,37,42,46
10.1.3.0075,THE POPLARS,OR,1,10.1.3,43.2644,-120.9447,1313.7,96.96819154787659,4.5743830025383065,-1.9130402933530593,17.80243949725562,19.715479732083544,7.352439652712178,1323.2080311594789,0.44460650211329283,0.06060606060606061,0.361465347691142,0.174726711794856,0.0449326064051481,16,18,19,21,23,33,41,46,51
10.1.3.0076,VALLEY FALLS,OR,1,10.1.3,42.4844,-120.2822,1318.3,113.24258514008122,4.729532288842902,-0.6536140954351836,19.872386571312568,20.52600038358274,8.585025838993799,1317.1228156206535,0.3337677606384822,0.06382978723404255,0.28960832113816,0.154342161819629,0.128192339557294,14,16,17,19,22,36,47,55,65
10.1.3.0078,WARM SPRINGS RSVR,OR,1,10.1.3,43.5667,-118.2,1018.9,81.2384016263925,4.397388061806577,-2.451000070538069,21.538040863982317,23.989041649776116,8.968360230097497,1046.2720062366902,0.16183324532416285,0.08333333333333333,0.14549301893703,0.0739076930457261,0.138084218341408,7,8,8,9,11,19,25,29,33
10.1.3.0079,WESTFALL,OR,1,10.1.3,43.9903,-117.7183,926.6,88.01481407780904,4.477505142103602,-2.7982641568966433,22.3859063302014,25.18417059983762,9.332260235580705,935.9935216522103,0.24831721310315247,0,0.212347372982963,0.0971610358963333,0.110747268380838,10,11,12,13,14,23,30,34,38
10.1.3.0083,Sedgwick Peak,ID,1,10.1.3,42.52,-111.96,2392.7,281.7200018580936,5.640913676472743,-5.311200123860546,17.963599319007194,23.274799213986025,5.052399959569987,2293.040007689874,5.0195338025,0,4.47728680570135,1.20452114787814,0,150,161,168,179,192,257,309,337,366
10.1.3.0084,Wildhorse Divide,ID,1,10.1.3,42.76,-112.48,1978.2,283.7000069928291,5.6479173664634805,-5.1627999835864395,17.703999932345265,22.866800068519588,5.400799964095425,1986.4799985990883,4.209994845,0,3.56194876065554,1.15437641002802,0,129,139,146,156,168,228,276,304,333
10.1.3.0085,Oxford Spring,ID,1,10.1.3,42.26,-112.13,2054.4,232.11360656851667,5.447226935295464,-3.9264000224478925,19.528799860328874,23.45519995907068,6.62319997877406,2053.5200091512384,2.5158960575,0,2.24050777581489,0.976943160004667,0.00329200250922612,93,102,108,116,127,176,216,240,264
10.1.3.0086,Howell Canyon,ID,1,10.1.3,42.32,-113.62,2432.3,379.30439764850786,5.938339042744457,-5.223999949294299,15.298800011175459,20.522799617147022,3.7992000444119465,2452.799994757465,6.775414485,0,5.7368900831414,2.14543357796875,0,221,240,253,271,295,408,496,543,599
10.1.3.0088,Bostetter R.S.,ID,1,10.1.3,42.16,-114.19,2286,239.14559826763963,5.477072564218426,-5.294400057034497,16.961999902399317,22.256399692405054,4.669200085663169,2278.5599986073457,4.359055925,0,3.77217038874535,1.41730452921827,0,145,158,167,179,194,268,327,359,396
10.1.3.0089,Magic Mountain,ID,1,10.1.3,42.18,-114.29,2097,314.24480069871885,5.750172302222009,-4.768399989703202,17.41359989897486,22.181999831457645,5.190000077538307,2170.399994763345,4.994526844999999,0,4.25147130797876,1.179539961079,0,144,155,162,172,185,248,298,326,357
10.1.3.0091,Wilson Creek,ID,1,10.1.3,42.01,-115,2170.2,220.27600140650105,5.394881311907485,-4.43999987914799,16.904000457774384,21.3440002415549,5.129999911398294,2187.400001760228,3.44997947,0,2.9572857471789,0.863349258477997,0,102,110,115,123,132,176,214,234,255
10.1.3.0092,Bear Creek,NV,1,10.1.3,41.83,-115.45,2450.6,292.2539975984181,5.6776232789529555,-5.566000074356072,14.770000470325677,20.336000067844605,3.2140000395610815,2497.2000007789206,5.23086711,0,4.79902620122764,1.32709568110734,0,163,174,183,194,208,279,337,367,401
10.1.3.0093,Seventysix Creek,NV,1,10.1.3,41.74,-115.47,2164.1,213.30959544236072,5.362744610130556,-4.596799927373963,16.644799852999125,21.241599417976847,4.816399891008823,2261.000005611434,2.8645224650000003,0,2.34085471765614,1.01322059138366,0,97,105,112,121,131,182,224,246,272
10.1.3.0094,Big Bend,NV,1,10.1.3,41.76,-115.69,2042.2,145.54560747775446,4.980489490950633,-3.9244000342974314,17.502399822462344,21.426800228692716,5.573599927931505,2096.9600010804456,2.52815437,0,2.00980136961978,0.864944963980848,0,83,90,96,103,112,156,191,211,231
10.1.3.0095,Pole Creek R.S.,NV,1,10.1.3,41.87,-115.25,2539,179.70999687502302,5.1913444231549315,-5.772000008775538,14.619999901566509,20.391999433504896,3.0180000962090685,2589.7999952395744,5.380418522500001,0,5.01575628998113,1.14751466954368,0,159,169,176,186,198,263,314,342,372
10.1.3.0097,Draw Creek,NV,1,10.1.3,41.66,-115.32,2194.6,199.71879833907514,5.296910368886264,-4.386399970773612,17.170800173701043,21.55720023984207,5.24640005624841,2209.7999982404936,3.138128,0,2.37543611389207,1.04159894494078,0,99,108,114,123,134,187,229,251,273
10.1.3.0099,South Mtn.,ID,1,10.1.3,42.76,-116.9,1981.2,352.81999235073505,5.865957990187899,-2.225999956066207,18.203999771051265,20.429999965535945,6.425999971039119,2058.799992883097,4.4836003799999995,0,3.62669651245866,1.64793591904982,0,153,168,178,192,210,295,361,396,436
10.1.3.0100,Mud Flat,ID,1,10.1.3,42.6,-116.56,1746.5,174.06599758094316,5.15943452374202,-3.936000061082646,19.270000838998463,23.206000518611397,6.6060001379069,1753.9999999782076,1.88091547,0,1.40423688567455,0.684571624635045,0,62,68,72,78,85,117,145,160,178
10.1.3.0101,Jack Creek Upper,NV,1,10.1.3,41.55,-116.01,2209.8,258.0739988093279,5.5532463608878775,-3.6980000670152857,17.497999554565453,21.19599876327396,5.511999775716869,2244.000004949035,4.570879565,0,4.06116992879016,1.29735708786402,0,146,157,165,177,191,259,313,343,376
10.1.3.0104,Laurel Draw,NV,1,10.1.3,41.78,-116.03,2041.2,236.3912013966385,5.465488065704939,-3.6544000098815657,17.208400182966983,20.862799992577017,5.53200004960375,2098.7600050103265,2.9768086074999998,0,2.33280465311324,0.779779432746068,0,85,92,97,104,112,151,183,202,221
10.1.3.0107,Fawn Creek,NV,1,10.1.3,41.82,-116.1,2133.6,287.4020004872359,5.6608819342582635,-3.776000001476389,17.21200067478864,20.98800048553032,5.295999837505537,2214.599994540043,4.608144835,0,3.90850196865134,1.23777701394197,0,140,151,158,169,183,247,298,326,357
10.1.3.0109,Buckskin Lower,NV,1,10.1.3,41.75,-117.53,2107.7,206.04599622310346,5.328099426502148,-3.1000000435795054,17.147999952793793,20.247999567219928,5.573999980218883,2110.1999991586376,2.6531891575,0,2.1156859123755,1.0065516741249,0.00710221444414922,92,101,107,116,127,179,220,244,270
10.1.3.0110,Lamance Creek,NV,1,10.1.3,41.52,-117.63,1828.8,253.0003930103638,5.533391042126961,-1.819599970573659,19.30199979133825,21.121599871584454,7.3439998394676405,1954.4000032842791,2.939053005,0,2.28794654731361,1.53464633551836,0,120,133,143,156,173,251,311,344,380
10.1.3.0111,Granite Peak,NV,1,10.1.3,41.67,-117.57,2603.9,300.8779939685469,5.706704846925507,-5.389600018073443,14.004399955538245,19.394000336007867,2.577600056937415,2579.279995181604,5.567235205,0,4.97347025437767,2.36918009198713,0,215,236,251,271,297,421,514,563,618
10.1.3.0112,Silvies,OR,1,10.1.3,42.75,-118.69,2130.6,291.56000292197683,5.675245826535884,-3.069999962437404,15.984000799468593,19.054001620212816,4.892000029897351,2128.9999964928443,4.284525385,0,3.46560531328393,1.66483826282091,0,151,165,176,190,208,294,362,399,440
10.1.3.0113,Fish Creek,OR,1,10.1.3,42.71,-118.63,2334.8,434.010007669802,6.073067592981556,-3.734399968404286,14.64520006212381,18.37960006867501,3.944800012898723,2362.879993995843,7.5726951300000005,0,6.89921769647151,2.32682745881911,0,253,274,288,309,334,458,554,607,664
10.1.3.0114,Disaster Peak,NV,1,10.1.3,41.97,-118.19,1981.2,228.0160023990896,5.429415812452441,-1.7344000413468346,19.655599970126243,21.389999997167994,7.62359984848176,1940.0400006396706,2.191786275,0,1.52463024829409,1.04885328817904,0.0473768554894211,84,94,102,112,126,192,244,276,310
10.1.3.0116,BURNS WSO CITY,OR,1,10.1.3,43.5833,-119.05,1262.2,115.33951637166953,4.747880095111626,-3.289959962943128,19.200000762866427,22.489961678530204,7.3200401696909445,1264.996000097863,0.41118529282684824,0,0.358403752584406,0.162237271230745,0.0805533190540677,16,18,19,21,23,34,44,49,56
10.1.3.0117,STREVELL,ID,1,10.1.3,42.0167,-113.25,1609.3,50.05387743467516,3.9130999739827703,-3.939720050710111,21.07963991511694,25.019360444571596,7.890079867830219,1584.9359985703923,0.24646242782355782,0.06060606060606061,0.200961869265196,0.132100535152301,0.237143230503646,12,14,16,18,21,45,69,87,113
10.1.4.0001,MONTPELIER 0.6 NNE,ID,1,10.1.4,42.324349999999995,-111.29894999999999,1816.75,102.09939947894077,4.625887434925514,-7.541321603254897,18.648440456398667,26.189761893790582,5.193487034204689,1818.106240384227,0.8403323565790853,0,0.682252476291362,0.334785468098736,0.0595007013911016,31,35,37,40,45,64,82,93,105
10.1.4.0004,LARAMIE 0.8 NNE,WY,1,10.1.4,41.31985,-105.57585,2189.125,37.43891310825748,3.6219079721279144,-5.306948219155438,18.059262259291984,23.3662107515053,5.4294518751221075,2193.652088577821,0.3617490414511684,0,0.283718734648963,0.153309950938106,0.0984288636988554,14,16,17,19,21,33,42,48,55
10.1.4.0006,MEDICINE BOW 0.3 NE,WY,1,10.1.4,41.897999999999996,-106.20315,2011.65,42.33798960132272,3.745684762903246,-5.805245652780977,19.080067003649805,24.885312342935094,6.0206979000612755,1998.5398633947207,0.32691462309404956,0,0.264545315061943,0.103241942983111,0.136622839175274,11,12,13,15,17,27,35,41,47
10.1.4.0013,THERMOPOLIS 0.9 SW,WY,1,10.1.4,43.645466666666664,-108.21509999999999,1333.8999999999999,30.108341573376883,3.4048016744482887,-6.056692938340035,22.50958788837145,28.56628052096098,8.109401071887563,1334.0809935686977,0.253992235,0,0.223266229755766,0.0966067091357367,0.124455209332241,10,11,12,13,15,24,31,36,41
10.1.4.0017,CODY 2.4 WSW,WY,1,10.1.4,44.50625,-109.10525,1591.1999999999998,24.68628094539912,3.2059240296135494,-3.9274750492829784,20.261923882603845,24.189398864458237,7.341198023587473,1590.7503444864542,0.25889555999999997,0,0.196420764622788,0.118943456788805,0.131029042952067,11,12,13,15,17,28,37,43,51
10.1.4.0020,POWELL 0.9 W,WY,1,10.1.4,44.7616,-108.7676,1337.5666666666666,11.270574421196233,2.4221241865101755,-5.476580591693031,21.51421426467163,26.990795585373654,7.646640019746943,1340.6311569151667,0.12801311847959182,0.03225806451612903,0.104821397218673,0.0646292090601074,0.155966556913535,6,7,7,8,9,17,23,27,32
10.1.4.0025,PINEDALE 25.9 NNW,WY,1,10.1.4,43.2369,-110.02095,2351.1,165.94125062319887,5.109251470584141,-9.854403528702022,13.92160298864875,23.77600667341772,1.5349254519518567,2363.0962069255966,3.06359746,0,2.86579153406123,0.836497872352937,0,99,107,112,119,128,171,206,225,247
10.1.4.0026,ROCK SPRINGS 0.5 E,WY,1,10.1.4,41.58603333333333,-109.22243333333334,1921.3666666666666,35.656399951183694,3.573776323903389,-5.633051881878732,20.467900057806002,26.100952330681086,6.752606894606981,1925.8171107938765,0.23135139865106585,0,0.193849806309248,0.0709345122756418,0.165647641728377,8,9,10,11,12,21,28,33,38
10.1.4.0027,GREEN RIVER 0.2 WSW,WY,1,10.1.4,41.5159,-109.47065,1877.75,29.457883169577183,3.3829607949735543,-6.559181790056036,20.016253003999726,26.57543438779046,6.301960963581944,1882.8335328264143,0.208406074948357,0,0.184328869648489,0.0865361335003008,0.16536606159303,9,10,11,12,14,24,33,38,46
10.1.4.0037,CRAIG,CO,1,10.1.4,40.5333,-107.55,1914.1,74.53260103966696,4.3112366275153775,-7.84951990765218,19.58992015118789,27.43944053186255,5.920120074588149,1909.0399996197564,0.5176987152718187,0,0.461776219951254,0.186945521274429,0.0512319239298666,19,21,22,24,27,37,47,52,59
10.1.4.0038,CRAIG 4SW,CO,1,10.1.4,40.4517,-107.5906,1980,76.19836002707996,4.333339940506669,-7.240107730650527,19.480135853385494,26.720244318365157,6.015896683374993,1969.7157739403337,0.5562319379240028,0,0.45906113529968,0.184481857435033,0.0475376851291421,19,21,22,24,26,37,45,50,56
10.1.4.0040,HAYDEN,CO,1,10.1.4,40.4925,-107.2547,1971.1,114.56848805797127,4.741172793152413,-7.39768809146131,19.480476297479857,26.878164688585603,6.026175999691947,1940.852799989422,1.1238562998781958,0,0.883531468756181,0.406599507312287,0,38,41,44,47,52,69,86,95,105
10.1.4.0041,HOHNHOLZ RCH,CO,1,10.1.4,40.9683,-105.9986,2376.5,65.37920216522654,4.180204198181328,-5.771707835885762,16.26124350901515,22.032951471365784,4.303301409652725,2375.135713646487,0.7871444818548529,0,0.630471560653577,0.272755550291797,0.0543479628171395,27,30,32,34,38,53,68,76,85
10.1.4.0042,MAYBELL,CO,1,10.1.4,40.5158,-108.0947,1811.7,67.56597159475066,4.213104477535412,-7.1281285207526075,20.082329849393968,27.210457808638324,6.389252695427521,1811.258428317184,0.4600645631830259,0,0.383427995061767,0.177698868555969,0.0816810975623336,17,19,20,22,25,37,47,54,60
10.1.4.0046,LIFTON PUMPING STN,ID,1,10.1.4,42.1231,-111.3133,1809,62.11683474452023,4.129017043094982,-7.408403285940018,18.900159620306905,26.308563053005898,5.392079968676082,1806,0.4456277201134754,0,0.38160631312637,0.200284771751549,0.093109228587519,18,21,22,25,28,42,55,63,73
10.1.4.0047,ALLEN'S RCH,UT,1,10.1.4,40.89945,-109.16585,1667.9,29.913293744605845,3.398233044983442,-3.9875902064616513,22.30901697737068,26.296607429350033,8.667220752444749,1680.4915665324738,0.16913081136595365,0.05,0.137154639363291,0.074507516131911,0.150788874350145,7,8,9,10,11,19,26,30,35
10.1.4.0050,LAKETOWN,UT,1,10.1.4,41.8253,-111.3206,1822.7,77.6063449726518,4.35164918895808,-7.290049567276998,18.39011073440827,25.68016030978771,5.265220581808247,1826.549919663916,0.6119259165478659,0,0.498386716867643,0.274052080168225,0.0837067955999282,25,28,30,33,37,55,72,82,95
10.1.4.0051,MANILA,UT,1,10.1.4,40.99,-109.7258,1948.6,23.426351683299234,3.15386152905524,-4.1589760542682175,20.32715195444644,24.486127482286452,7.339151923640461,1962.2255998809628,0.21961918748847906,0.038461538461538464,0.207030580590142,0.0952610651487197,0.148429442138956,10,11,12,13,15,25,33,39,45
10.1.4.0052,RANDOLPH,UT,1,10.1.4,41.6608,-111.1869,1917.2,73.158035470393,4.292621970652466,-8.251693159324729,17.588959487577892,25.840652646902623,4.354506306877823,1915.2081282383222,0.570319062040515,0,0.483702614681901,0.260868581429942,0.0911012481436771,24,27,29,32,36,54,70,81,94
10.1.4.0053,WOODRUFF,UT,1,10.1.4,41.525,-111.1494,1924.8,53.663922805498345,3.9827409471614232,-8.12071990401655,17.672880007125595,25.793600864816312,4.550000189983306,1924.783999805713,0.41762694040439596,0,0.377368225453067,0.19266101852695,0.104336857306656,18,20,22,24,27,42,54,63,74
10.1.4.0059,BASIN,WY,1,10.1.4,44.3797,-108.035,1170.4,18.19662328997142,2.9012360433512234,-7.9690720989632275,22.994920056046535,30.963992404490956,7.756872157925718,1174.3951991469535,0.18886587502402358,0,0.160113442713071,0.077509805258295,0.131589030085865,8,9,9,10,12,20,26,30,35
10.1.4.0060,BIG PINEY,WY,1,10.1.4,42.5414,-110.1253,2083.3,33.11594244664149,3.500014811342977,-11.506171735760155,16.65830829433716,28.164480030097316,2.6196683667763443,2083.2359995329352,0.41244190646694157,0,0.325923830029843,0.161315589924668,0.119099221333154,16,17,19,21,24,37,49,56,64
10.1.4.0062,BLACK MTN,WY,1,10.1.4,43.6561,-107.7375,1717.5,38.372860339392844,3.647350447724703,-4.745139999036137,22.40365970395166,27.14880011592883,7.908560095135892,1636.4240029064981,0.3817306770464957,0,0.326813483546788,0.116550675818968,0.117936881201102,13,14,15,17,19,29,38,43,50
10.1.4.0063,BORDER 3 N,WY,1,10.1.4,42.2128,-111.0456,1849.8,94.38706156600087,4.547404004075724,-8.506739702172924,18.046099988635216,26.55283939613032,4.6017600238803755,1856.7850248332925,0.9099262264176442,0,0.767318055058558,0.377083247142202,0.0658663050715109,35,39,42,46,51,75,96,109,122
10.1.4.0064,BOULDER REARING STN,WY,1,10.1.4,42.7156,-109.6894,2115.3,36.221057896768386,3.5896406595596133,-11.263262103430325,16.29672523864645,27.559987060216407,2.4980710450831474,2130.848319076496,0.4759107645589889,0,0.423449123613195,0.176892250834046,0.120921083488547,18,21,22,24,27,42,55,64,74
10.1.4.0065,BOYSEN DAM,WY,1,10.1.4,43.4053,-108.1633,1485.9,18.12622782441296,2.8973599404829273,-6.756685037416654,22.79533465902486,29.552019632148554,7.704960324985129,1523.1499250460147,0.1557502721668001,0.02,0.127658416413666,0.0694319888335083,0.140646965594172,6,7,8,9,10,18,24,27,32
10.1.4.0067,BUFFALO BILL DAM,WY,1,10.1.4,44.5075,-109.1675,1572.8,26.26120047626813,3.2680925828437695,-3.9211000441920376,19.76080068891202,23.681901510348766,7.07089996339396,1651.6699760100814,0.2380646356149983,0.012048192771084338,0.206472818185203,0.11225276958949,0.132919306252979,10,12,13,14,16,27,36,41,48
10.1.4.0068,BURRIS,WY,1,10.1.4,43.3656,-109.2756,1866.9,18.122366899506265,2.8971469156773755,-5.818542863774315,18.394914812782606,24.21345681824997,5.719358100965506,1878.1000286716842,0.33920188452748345,0,0.294464598267525,0.125602319411451,0.128299368042467,13,15,16,17,19,31,40,47,55
10.1.4.0069,CENTENNIAL 1NE,WY,1,10.1.4,41.3136,-106.1292,2490.2,88.73537792436007,4.485658658999942,-5.889395746193767,15.845097068318399,21.734492451108757,4.058856951537441,2499.9378556310908,0.5790886493864671,0,0.496591578402543,0.224620295635724,0.120025727480484,22,25,27,30,34,52,70,81,96
10.1.4.0070,CHURCH BUTTES GAS PLT,WY,1,10.1.4,41.3975,-110.0883,2157.7,26.094659993911165,3.261730695461197,-6.003575995381624,19.43755568576448,25.441131766404556,5.756384034839876,2145.7807994796553,0.3466466815879448,0.027777777777777776,0.292415873808104,0.130924069226293,0.140555873436542,13,15,16,18,20,33,44,51,60
10.1.4.0071,CLARK 4 SW,WY,1,10.1.4,44.9,-109.2333,1382,26.636359429152293,3.2822771782687705,-4.350319874277856,20.810279468905694,25.16059982002066,7.690120071024031,1365.936002250732,0.21952464742996883,0,0.192418180354785,0.111932676305077,0.160779817753933,10,12,13,15,17,29,40,47,56
10.1.4.0072,CLARK 3NE,WY,1,10.1.4,44.9364,-109.13720000000001,1254.9,17.401572720476672,2.8565605883701854,-4.603304976893309,21.265007704520535,25.86831242451681,7.893197460759309,1265.1872630258163,0.17860509955507778,0,0.159508504935084,0.10238551484126,0.168914258023,9,11,12,13,15,27,38,45,54
10.1.4.0073,CODY 12SE,WY,1,10.1.4,44.4139,-108.9006,1599.6,15.786635601278231,2.759163734081268,-4.218798837770751,20.13348727811063,24.352285650305188,7.078764888153849,1604.062752599698,0.20217135660163174,0.07317073170731707,0.185445961994545,0.0900174683019566,0.132402720779109,9,10,10,12,13,22,30,34,40
10.1.4.0074,CODY 21 SW,WY,1,10.1.4,44.34335,-109.3707,1780.45,27.99852134482647,3.327859636829392,-4.0996874818844775,18.51906091676411,22.61874805936185,6.218575846338536,1811.0704002181515,0.3897482343073444,0,0.333504173239801,0.165739768329303,0.112845309562663,16,18,19,21,24,37,49,57,66
10.1.4.0076,DANIEL FISH HATCHERY,WY,1,10.1.4,42.9281,-110.1272,2237.5,63.690349299222575,4.154033048733482,-10.779822161117952,14.789595790745485,25.56941811931346,1.6969379692846744,2238.3448323299904,0.9774621835604959,0,0.768147856444605,0.335012102488529,0.0667963429390878,33,37,39,43,47,68,88,99,113
10.1.4.0077,DEAVER,WY,1,10.1.4,44.8919,-108.5928,1251.2,11.626673984413085,2.4533019397657982,-6.275624842478742,21.850280388844435,28.125905610519254,7.57048401289708,1252.3761917422587,0.12800367132157392,0.02702702702702703,0.113119068350933,0.0674545507793424,0.16544386983804,6,7,8,9,10,19,25,30,36
10.1.4.0078,DIVERSION DAM,WY,1,10.1.4,43.2336,-108.9133,1700.2,13.770809364385537,2.622551088383288,-5.872492258880968,20.405557065792628,26.2780490343141,6.738064458533816,1713.9394269161714,0.2131561360926571,0.03125,0.177749266404144,0.086393786491397,0.143590039964292,8,10,10,11,13,22,30,34,40
10.1.4.0080,DUBOIS,WY,1,10.1.4,43.5397,-109.6553,2119.9,37.44584314458637,3.6228957063282237,-6.841013577491241,15.78693146964399,22.627945786278595,3.723933125080879,2161.9661417428133,0.3372446872166449,0,0.300785354036517,0.132558773900703,0.11154040354565,13,15,16,18,20,31,40,46,53
10.1.4.0081,ELK MTN,WY,1,10.1.4,41.6878,-106.4136,2214.4,54.19341229313437,3.9925593566513657,-5.077305126358572,17.937507309717187,23.014812459086045,5.4392222692959304,2218.1835513301003,0.7077877701003559,0,0.570819596111651,0.321836187371035,0.100398055724344,29,33,35,39,44,68,92,106,122
10.1.4.0082,EMBLEM,WY,1,10.1.4,44.4972,-108.3906,1355.8,15.272590272361242,2.726059736302594,-6.097460385316698,21.682679803327968,27.78014052290365,7.558039774347772,1356.3610237095004,0.09570392968083744,0.1,0.0834909919329319,0.0449776567630702,0.137841667267826,4,5,5,6,6,12,16,18,21
10.1.4.0085,EVANSTON 1 E,WY,1,10.1.4,41.265,-110.9508,2080.3,46.77457476165867,3.8453397809731027,-6.349231927602751,17.8393441750881,24.188576216368798,5.0828799435062635,2076.875197345613,0.66262736751876,0,0.563261607532201,0.236653107470241,0.089531252271678,24,27,29,31,35,51,66,76,87
10.1.4.0086,FARSON 2NNE,WY,1,10.1.4,42.1397,-109.4308,2017.8,24.848356190509428,3.2127916010794033,-10.284890152688336,18.10636277143687,28.39125336638585,3.7583948712455504,2018.5325122491176,0.30405834403645116,0,0.259723835427731,0.125831886952799,0.160067849683039,13,14,15,17,20,33,46,54,66
10.1.4.0087,FONTENELLE DAM,WY,1,10.1.4,41.9861,-110.0611,1976.6,20.492164081951195,3.020042573167249,-9.451061973589008,18.03662698904895,27.487688537085617,4.132191000441706,1978.3480139610692,0.23001372639059162,0,0.200531070162599,0.0810928672005004,0.15503936341746,9,10,11,12,13,23,30,35,41
10.1.4.0088,FT WASHAKIE 1 SE,WY,1,10.1.4,42.9833,-108.8667,1692.9,25.301320981263945,3.2308566070686187,-6.420000236284537,20.469839798823497,26.889840035115657,6.639840030862645,1692.0359194102145,0.4008069042091732,0,0.344543127427673,0.137653941503838,0.137222058668355,15,16,18,20,22,35,46,54,63
10.1.4.0089,FOSSIL BUTTE,WY,1,10.1.4,41.8369,-110.7706,2068.1,60.172770255232535,4.097219928644967,-8.420439299634442,17.302760434877925,25.72320020750431,4.001960699664297,2060.6160002426195,0.9176678634748832,0,0.774214802744321,0.332956770526055,0.0801968131528,33,37,39,43,48,70,91,105,119
10.1.4.0090,GAS HILLS 4E,WY,1,10.1.4,42.8394,-107.5133,1972.1,24.131940161176825,3.1835362809291965,-5.972395537913657,20.30094338226742,26.273339411269923,6.024983433224247,2086.023329557839,0.4149417293985201,0,0.370883560114009,0.180103847664751,0.145983491416101,18,20,22,24,28,45,62,73,87
10.1.4.0092,GREYBULL,WY,1,10.1.4,44.4894,-108.0536,1154.3,14.88968591391646,2.700668752713633,-8.010065118057932,23.1072056704078,31.117271182813965,7.748880049401903,1156.705983463217,0.18775506255938662,0.023255813953488372,0.169197779486322,0.0883951478812922,0.134841195418649,8,9,10,11,13,22,29,34,39
10.1.4.0093,HEART MTN,WY,1,10.1.4,44.7053,-108.9558,1460,19.422293738327998,2.9664215680577954,-4.708267906930794,20.823707562684678,25.531975639338995,7.531240126626078,1462.2345291411152,0.2042567147167208,0,0.183198637082813,0.088327987969853,0.14863278888933,9,10,11,12,14,23,31,36,42
10.1.4.0094,JEFFREY CITY,WY,1,10.1.4,42.4942,-107.8292,1926,28.43914483671579,3.347766535450461,-5.998128595680753,20.012855689980487,26.010984286820893,6.068387812122529,1932.5500797914513,0.31896249128881377,0,0.282299855044688,0.119669685942685,0.159115519790155,13,14,15,17,19,33,44,52,63
10.1.4.0095,KEMMERER 2N,WY,1,10.1.4,41.8181,-110.5333,2114.4,53.48754358328065,3.979448796573744,-8.225914044679755,16.772635236283705,24.998549114428933,3.64686757708482,2125.9138107193894,0.5983602684296432,0,0.499285236714648,0.293990682816708,0.110225737061695,26,30,32,36,40,64,86,100,117
10.1.4.0096,KENDALL,WY,1,10.1.4,43.1667,-109.9833,2332.9,113.01468767948404,4.727517789730203,-9.629120268274164,13.749798876167382,23.378920098085345,1.4202781997265448,2451.220065394976,2.3854776450313975,0,2.14738417025648,0.619236312859183,0,74,79,83,89,95,126,153,167,184
10.1.4.0100,LEO 6 SW,WY,1,10.1.4,42.1953,-106.8556,1839.5,43.57266167118294,3.7744299278017426,-4.2158693969085155,20.378490307957723,24.59435969438338,7.180430612953557,1855.2988491991523,0.2988247339939708,0,0.250563981629311,0.105786869825401,0.153028335026223,11,13,14,15,17,29,38,44,53
10.1.4.0103,LOVELL,WY,1,10.1.4,44.8378,-108.4039,1172.6,15.871607295914524,2.764531808295561,-6.552034469227411,21.92710273995418,28.479136935332008,7.562468479001845,1171.2223033300688,0.18936512584901533,0.04,0.155848964277666,0.0884282589096824,0.157123660413209,8,9,10,11,13,23,32,37,43
10.1.4.0108,MTN VIEW,WY,1,10.1.4,41.2658,-110.3375,2072.6,36.76843991053556,3.60463986608932,-5.931599955607869,18.561680566300502,24.49328047231735,5.578120042633623,2077.5479975431927,0.4234151177405102,0,0.348234944882903,0.168486869658635,0.12481793711692,16,18,20,22,25,39,52,61,72
10.1.4.0109,MUDDY GAP,WY,1,10.1.4,42.3628,-107.4444,1904.4,28.52223932243423,3.350684110080657,-5.096247665940337,20.777381066180496,25.87362904129442,6.848817265135601,1915.184317777354,0.3578004814690272,0,0.321128462234718,0.155078028366645,0.15358880993184,15,17,19,21,24,40,54,64,78
10.1.4.0110,PATHFINDER DAM,WY,1,10.1.4,42.4717,-106.8528,1805.3,25.602909729756732,3.242706006345181,-4.170831044455088,20.958698853899314,25.129529710282224,7.377771132782892,1819.2828201774234,0.19948152495346455,0,0.173098499286016,0.0634565171181634,0.16669890486714,7,8,9,10,11,19,26,30,35
10.1.4.0111,PAVILLION,WY,1,10.1.4,43.2458,-108.6942,1670.3,16.380363943716187,2.796083296964182,-6.096000026091095,20.950492550324935,27.046492169982958,6.944492128085159,1670.3507843601087,0.19876653253514204,0,0.173844212143609,0.0646051977106975,0.143932845054693,7,8,9,10,11,18,24,27,31
10.1.4.0112,PINEDALE,WY,1,10.1.4,42.8744,-109.8581,2197.6,52.29017684500202,3.9568085301985665,-10.719679082929975,15.219799679866393,25.939478804757915,1.982960325786969,2216.356067002857,0.7736149899964294,0,0.638510102447764,0.313264065631295,0.0889776244639194,30,33,36,39,44,66,87,99,116
10.1.4.0113,POWDER RVR (SCHOOL),WY,1,10.1.4,43.03515,-106.98885,1740.75,27.989174055667537,3.331817793608127,-4.7451648482942215,21.291855376619385,26.037020224913604,7.192579979331807,1742.290959428336,0.3282363061334417,0,0.294753627403577,0.127037727333445,0.15469254190657,13,15,16,18,20,34,45,53,63
10.1.4.0114,RAIRDEN 2WSW,WY,1,10.1.4,44.1786,-107.9381,1225.3,15.419746638145098,2.7356489372703074,-7.4706219722683995,22.882760315744335,30.35338207567152,7.806049087370966,1222.6986876686547,0.18788474125258808,0,0.149840986295242,0.077060331853861,0.129268754612534,7,8,9,10,11,19,25,29,34
10.1.4.0116,RIVERTON,WY,1,10.1.4,43.0306,-108.3744,1510.3,19.614711712448873,2.976279882252917,-7.12591221019083,22.039760731370748,29.16567326199619,7.244396179253085,1508.3603838736058,0.24643088387497053,0,0.194180385294921,0.0827508231343659,0.149144353863082,9,10,11,12,13,22,30,35,40
10.1.4.0120,SAGE 4 NNW,WY,1,10.1.4,41.8667,-111,1892.8,44.4735612500351,3.794894883394801,-8.700119811039048,17.680040306552087,26.380161067450675,4.340040152053875,1894.0000001096273,0.42982906313895797,0,0.384900831584487,0.168251513238835,0.106949332798753,17,19,20,22,25,38,50,57,66
10.1.4.0122,SARATOGA,WY,1,10.1.4,41.4528,-106.8053,2069.6,36.091135236060865,3.586047273855762,-5.163941843104988,19.05218301944905,24.216124718114365,6.176439963402189,2072.6150391300093,0.36508828060417703,0,0.298610125478488,0.128931453103145,0.115222814524843,13,15,16,17,20,31,40,46,53
10.1.4.0125,SHELL,WY,1,10.1.4,44.5353,-107.7775,1293,33.83120416559407,3.5213835767673047,-6.456655969825237,22.016259621892043,28.472915874004713,7.5902239124973185,1298.1492001910271,0.25114510985258,0,0.232291015070534,0.107637552878076,0.131034289393163,11,12,13,14,16,27,35,40,47
10.1.4.0126,SHIRLEY BASIN,WY,1,10.1.4,42.3703,-106.105,2151,45.00940066400907,3.8068713715976377,-7.7739918529322,17.240008301815493,25.01400032106855,3.983904004238407,2164.9527996913466,0.5282988794053691,0,0.498885121522206,0.237152265522327,0.132834608504339,23,26,28,32,36,57,78,91,106
10.1.4.0127,SHOSHONI,WY,1,10.1.4,43.2372,-108.1097,1474.3,10.18640085016483,2.3210535807378596,-7.229757896293088,23.03895521085371,30.26871339324923,7.794796123004515,1471.7165754763482,0.1572964097535936,0.0392156862745098,0.142915999402927,0.0705834394436128,0.14802472696584,7,8,8,9,11,19,25,29,34
10.1.4.0128,SOUTH PASS CITY,WY,1,10.1.4,42.4667,-108.8,2389.6,90.44135861298295,4.504701669554598,-9.208720008177242,17.548279203384613,26.756998265517176,2.9302400750463367,2392.1960047633384,1.552873325257025,0,1.32643900990798,0.626519077801451,0.0863376350246984,60,67,72,79,88,136,178,202,227
10.1.4.0129,SUNSHINE 3NE,WY,1,10.1.4,44.0758,-108.9547,1897.1,25.938126354570585,3.255713946309294,-5.333052942903553,17.34676581804054,22.67981935998883,5.117309973880172,1918.6711066009748,0.5528796238878954,0,0.483527725799184,0.191930726460221,0.0953418635737945,20,22,24,26,29,43,55,63,72
10.1.4.0131,TENSLEEP 4NE,WY,1,10.1.4,44.0647,-107.3819,1447.2,39.082948806231464,3.6656862799633494,-3.71804031199388,22.11824634223619,25.836286335950753,8.376454494153753,1485.2179071164724,0.2792241969788914,0,0.233417439965321,0.0899420423380937,0.130881485888951,10,11,12,13,14,23,30,35,41
10.1.4.0132,TENSLEEP 16SSE,WY,1,10.1.4,43.8111,-107.3653,1426.5,44.06756988428477,3.7857241351570807,-6.40409822601117,21.269529404130996,27.673627576622035,6.827038239843316,1435.990578391801,0.43277146872218814,0,0.366104937933313,0.140456276976297,0.119174768565474,15,17,18,20,22,34,44,51,58
10.1.4.0134,THERMOPOLIS 21WNW,WY,1,10.1.4,43.7231,-108.6964,1679.4,24.077555365218295,3.1812800939089985,-5.328934772265367,19.636079422188466,24.965014671290987,6.4395548318349505,1748.8940812379792,0.28994192227676724,0,0.251341069224652,0.0800793099106833,0.119272680999652,10,11,11,12,14,21,28,31,35
10.1.4.0135,WAMSUTTER,WY,1,10.1.4,41.6717,-107.9783,2054.4,18.986239988206066,2.9437145056518177,-6.774783770135821,19.44000053434271,26.214784781315686,5.651568101613286,2061.1335524984124,0.2549211773328454,0,0.219601180940628,0.105954098380874,0.152703814325697,11,12,13,14,16,28,37,44,52
10.1.4.0137,WORLAND,WY,1,10.1.4,44.0114,-107.9683,1236.9,16.35753845703572,2.7946888587928136,-7.6666710037559636,22.84319524440836,30.50986642364044,7.706597435222978,1237.4490239098004,0.15651859876467478,0.027777777777777776,0.137577651634923,0.0662843703682304,0.130255443756793,6,7,8,9,10,17,23,26,30
10.1.4.0138,Middle Powder,WY,1,10.1.4,43.63,-107.18,2365.2,108.74479788299719,4.68900383326599,-6.385600086548447,16.61360002403095,22.999199519301293,3.6824000268344346,2356.439996576311,3.2881697450000003,0,3.00748859851246,0.764951547364738,0,99,106,110,117,125,165,198,216,236
10.1.4.0140,Owl Creek,WY,1,10.1.4,43.66,-109.01,2735.6,60.28199963203039,4.099033545604095,-7.2968000864328415,14.409999863634972,21.70679964489205,2.329600007696649,2717.8399897773365,1.5317987300000002,0,1.3295496809771,0.427300456470645,0.0435725068902785,49,53,56,60,66,90,112,125,139
10.1.4.0141,Hams Fork,WY,1,10.1.4,42.15,-110.68,2389.6,162.6560042020694,5.091637567098579,-7.087999927246036,15.376000208521852,22.46400032650278,3.1520000812841014,2425.8000056421947,2.7649849675,0,2.66279813897691,0.580200166486147,0,83,88,92,97,103,133,160,174,189
10.1.4.0143,Giveout,ID,1,10.1.4,42.41,-111.17,2112.3,164.73160760657723,5.104317528950774,-6.346000026869256,16.452000195097423,22.798000488995584,4.21760005337667,2151.480001810695,2.440875185,0,2.15430901361409,0.729693732417334,0,79,86,90,97,104,141,171,187,204
10.1.4.0145,LANDER HUNT FLD AP,WY,1,10.1.4,42.8153,-108.7261,1704.4,38.95926165124675,3.6625165271380475,-6.282381317826042,21.239574097734636,27.521955425883238,7.010007063439032,1688.7807383009695,0.354020065,0.14084507042253522,0.327441567789797,0.162336764936575,0.149705187124287,15,17,19,21,24,40,54,64,76
10.1.4.0146,LARAMIE RGNL AP,WY,1,10.1.4,41.3119,-105.6747,2214.7,28.168621399296615,3.3382086420786297,-5.197891881433168,17.884845193485695,23.08273696153836,5.370359894456334,2216.5514078852743,0.3504237928095469,0,0.327504686292876,0.137685261155214,0.0986277593439657,14,16,17,18,21,31,40,46,53
10.1.4.0147,ROCK SPRINGS AP,WY,1,10.1.4,41.5944,-109.0528,2054.7,33.82767940369902,3.521279384628378,-5.948925381837753,20.326586086738686,26.27551183393298,6.287235971166415,2044.538364806595,0.267673947885732,0.019230769230769232,0.234171771046101,0.104688918497343,0.162283420793082,11,12,13,15,17,29,39,46,54
10.1.4.0148,RAWLINS MUNI AP,WY,1,10.1.4,41.8056,-107.19970000000001,2053.1,30.22787375225154,3.408764470632997,-5.45631788694641,19.693356142289694,25.14967450216711,6.093237990763731,2069.828769672204,0.2934309970708429,0,0.266903143146322,0.114840611595509,0.144563267299104,12,13,14,16,18,30,39,46,54
10.1.4.0150,WORLAND,WY,1,10.1.4,43.9658,-107.9508,1271.6,16.601838862721728,2.80951346409017,-7.444759522647933,22.638619718667577,30.083380062421533,7.620780067231166,1277.5500153578919,0.18777858060828967,0.024390243902439025,0.178398792703712,0.0752400328091208,0.128727179234542,8,9,9,10,12,19,26,29,34
10.1.5.0002,FALLON 0.8 WSW,NV,1,10.1.5,39.464200000000005,-118.7863,1210.8,36.9985862739469,3.6108793478726477,0.4482343981682691,24.043263396624702,23.59502879073188,11.597676888570852,1208.096560039642,0.07163268679348823,0.30952380952380953,0.0783983597487765,0.0471405446722333,0.214639485690237,4,5,5,6,7,15,21,26,32
10.1.5.0022,HILLS 0.9 SW,UT,1,10.1.5,41.66305,-111.89070000000001,1369.75,126.09903423692865,4.837067567650136,-4.630334500538219,22.29288030509811,26.92321455239381,8.647918424505416,1374.0189118959684,0.49373116763562086,0,0.380513747701205,0.187278872447311,0.140915815710801,18,21,22,25,28,46,63,74,89
10.1.5.0023,RICHMOND 0.5 WNW,UT,1,10.1.5,41.914249999999996,-111.81465,1410.65,129.0434969308581,4.85896963798208,-4.99670582141642,21.907278020055944,26.90398383174493,8.244987916616395,1410.560584885894,0.49782778176421755,0,0.419282084935498,0.221320112122042,0.126002213086112,21,23,25,28,32,51,69,81,95
10.1.5.0025,NORTH LOGAN 0.8 ESE,UT,1,10.1.5,41.7573,-111.8014,1453.75,130.0506235549919,4.8678650129318335,-4.926354583177515,21.7696784953597,26.696033221328975,8.185363547117703,1451.251712165597,0.49132072804870464,0.010416666666666666,0.411777335796432,0.187608003378156,0.126356892084785,19,21,23,25,28,45,60,70,83
10.1.5.0026,LOGAN 0.7 SW,UT,1,10.1.5,41.7337,-111.85079999999999,1370.1,110.7339667561142,4.707078644327774,-4.804893140895411,22.22870950035062,27.03360201526945,8.559002790744483,1369.9443203215837,0.32555557140098973,0,0.280597883403644,0.138463271506292,0.152416192832508,14,15,17,19,21,36,48,57,68
10.1.5.0027,FARMINGTON 1.8 W,UT,1,10.1.5,40.98535,-111.9143,1297.05,140.46377801207714,4.944258168006917,-1.2723059045350786,25.293262730588737,26.56556911353263,11.431668278296371,1295.4517765624178,0.41756474741124083,0,0.345200712789296,0.19961250764624,0.148290251732712,18,21,23,26,29,49,68,81,96
10.1.5.0029,OAK CITY 0.3 SSE,UT,1,10.1.5,39.3778,-112.31694999999999,1559.05,77.23564757670702,4.344220033779784,-2.163851439097268,23.750859947816686,25.914711265770563,10.084199873721323,1636.4319675085603,0.26185465880381054,0.011627906976744186,0.202107166017325,0.116910251171543,0.152931119600739,11,12,13,15,17,30,40,47,56
10.1.5.0030,DELTA,UT,1,10.1.5,39.3485,-112.57900000000001,1411.1,47.2476300236802,3.8553753049184447,-3.102223901326729,24.205673452156383,27.307897451368213,10.108819902637142,1410.0792000928395,0.15800027142395906,0.02857142857142857,0.12678406083962,0.0628821376544999,0.150176328062286,6,7,8,8,10,17,23,27,31
10.1.5.0041,WEST WEBER 1.0 ESE,UT,1,10.1.5,41.237700000000004,-112.04599999999999,1299.65,114.80000412565715,4.743076083412419,-2.1843557467583175,24.87349338777582,27.057849266991894,10.889200559334112,1296.3958318872374,0.2802667695885349,0.1320754716981132,0.27865387751974,0.135804477621552,0.173923165256235,13,15,16,18,21,36,51,61,73
10.1.5.0043,BENTON INSPECTION STN,CA,1,10.1.5,37.8428,-118.4783,1664.2,66.62825861795075,4.199128791127872,0.9479356820174311,22.62910699541675,21.681171099163976,10.951907499155144,1672.5828480499272,0.25515617284471803,0,0.206131350925915,0.126955105019348,0.247758573662827,12,14,16,18,22,47,74,93,120
10.1.5.0044,BODIE CALIFORNIA ST HISTORIC P,CA,1,10.1.5,38.2119,-119.0142,2551.2,120.19877003221922,4.789146789371708,-3.7678419029897694,15.543815237368362,19.311656797676328,4.186986128650932,2594.3507222136404,1.9972442057812134,0,1.52947518564475,0.906979267498072,0.100130836023225,80,90,97,108,122,200,263,303,353
10.1.5.0045,BRIDGEPORT,CA,1,10.1.5,38.2575,-119.2286,1972.1,111.84801708316425,4.717140959421048,-1.4756160225096167,19.222639371312738,20.698254812462473,8.00402409235529,1971.7712000057493,0.744886916711173,0,0.628760813292376,0.426515590469787,0.166294345461479,37,43,47,54,62,115,163,194,236
10.1.5.0047,DEEP SPRINGS COLLEGE,CA,1,10.1.5,37.3739,-117.9803,1592.6,48.89992219044203,3.889775805282056,0.9259566239576824,24.07012267268781,23.14416580457799,11.843656020266092,1606.9757419889033,0.13594219861337067,0.2631578947368421,0.136030425280806,0.0962569674173864,0.25,8,9,10,12,15,32,50,64,83
10.1.5.0048,DOYLE,CA,1,10.1.5,40.0267,-120.1056,1308.5,131.1989262527394,4.876714692427257,0.40949086731201806,21.632570418921585,21.22307970298438,10.389247242012868,1308.2905911753758,0.24909470390173746,0.08064516129032258,0.202468002818707,0.11761215555228,0.142268814283345,10,12,13,15,17,29,38,44,52
10.1.5.0049,DOYLE 4 SSE,CA,1,10.1.5,39.9717,-120.0828,1338.1,170.58295507210207,5.139221718413686,0.4188812934093612,21.34102960311181,20.922148756947138,10.246709176471205,1345.022205065156,0.30645462785302013,0,0.247364090362354,0.14678926331855,0.138166450566514,13,15,16,18,21,35,47,56,66
10.1.5.0050,INDEPENDENCE,CA,1,10.1.5,36.7981,-118.2036,1204,79.7749440990618,4.3792094714315235,4.938229526570232,27.37941531500175,22.441185579096143,15.608889950898742,1215.092958678118,0.042621823872347885,0.4074074074074074,0.119133317045532,0.100975448758916,0.25,7,8,10,11,14,31,49,63,81
10.1.5.0053,MONO LAKE,CA,1,10.1.5,38,-119.15,1965.7,188.77999825065993,5.240582306630245,-0.9499999954209789,19.51000023227209,20.46000100255342,8.539999954186628,1989.9999996754298,1.0623536628113204,0.02857142857142857,0.860173985232367,0.56361386027523,0.147700551480431,49,56,61,69,79,143,198,230,273
10.1.5.0056,MALAD,ID,1,10.1.5,42.2,-112.2667,1396.3,110.50128257681456,4.7050271279204425,-4.83996015281067,21.55015922270756,26.390119375518267,8.09016013946369,1408.9760031220128,0.5692602856442862,0,0.422112414779995,0.217756848129723,0.133795297979721,21,23,25,28,32,52,70,82,97
10.1.5.0058,PRESTON SUGAR FACTORY,ID,1,10.1.5,42.0667,-111.85,1439.9,111.92159821370144,4.717798610220434,-5.160199852988534,21.779640677243147,26.93984053404647,8.139680336306983,1399.0640014961828,0.47394131197467,0,0.398013414784726,0.227585897471981,0.128058653491009,21,23,25,28,32,52,71,82,97
10.1.5.0060,ADAVEN,NV,1,10.1.5,38.1167,-115.5833,1905,115.33565697956311,4.747846633408307,-0.3597619410207353,22.000277588832283,22.360040120548348,9.800198098053714,1908.9522570448569,0.6107797964344465,0.021739130434782608,0.456501356391976,0.304090157420298,0.0969796514166073,25,29,31,35,39,62,82,96,112
10.1.5.0062,ARTHUR 4NW,NV,1,10.1.5,40.7808,-115.1853,1905,117.89139482658953,4.769763817827814,-3.592202472706463,19.353763029913914,22.945965793552098,7.039880107038427,1904.9931833311177,1.068373575932167,0,0.891178438456583,0.491756917546542,0.111641703974251,45,51,55,61,69,112,149,171,198
10.1.5.0063,AUSTIN #2,NV,1,10.1.5,39.4931,-117.0675,2066.5,99.17880108466805,4.596924292710732,-0.4187280044304156,21.673328247714288,22.09205616303574,9.0435002520384,2060.236002812319,0.5291173329995371,0,0.461778425051053,0.207589912491806,0.125952176595276,21,23,25,28,31,49,66,78,93
10.1.5.0066,BEOWAWE,NV,1,10.1.5,40.5903,-116.475,1432.6,67.02624059014751,4.2050841933151055,-3.073279928693999,21.806719705038834,24.879999473515518,8.906719930162167,1432.327999856824,0.16012316804543403,0.09333333333333334,0.148660306765504,0.0763139645970401,0.140567624447517,7,8,9,10,11,19,26,30,35
10.1.5.0068,BLUE EAGLE RCH - CURRANT 12SSW,NV,1,10.1.5,38.5208,-115.5444,1425.9,48.244138051965514,3.8762743292533735,-1.3359219163796003,24.29045152379561,25.626373480870413,11.20218501056126,1460.813567612668,0.18330097957338165,0,0.145285342107257,0.0702737818185366,0.109146292004885,7,8,8,9,10,17,22,25,29
10.1.5.0071,CALIENTE,NV,1,10.1.5,37.6128,-114.5264,1334.7,63.86757350996549,4.1568117757756555,0.8198387056878818,24.43209682533527,23.612258499953597,12.05281722826455,1371.7503392368244,0.13298967972933928,0.11666666666666667,0.136447454940632,0.0754493438837132,0.211545243025251,7,8,9,10,12,24,34,41,50
10.1.5.0073,CARSON CITY,NV,1,10.1.5,39.1253,-119.7678,1451.2,113.83266420823384,4.734729512213311,0.6227951870328192,20.923024889146927,20.30023017505166,10.074461197174934,1453.2939204287252,0.2871743786868844,0.043478260869565216,0.270233242107781,0.16734127642251,0.19607328158792,15,18,19,22,26,48,71,87,109
10.1.5.0086,DYER 5S,NV,1,10.1.5,37.6064,-118,1493.5,32.262079501323655,3.4738925312929556,0.5491199976758065,23.954479849976472,23.405360184894576,11.711439564905282,1491.7839992522502,0.1019638708859116,0.1935483870967742,0.116904257097586,0.0766228997307221,0.25,7,8,9,10,12,27,41,52,67
10.1.5.0088,ELY YELLAND FLD AP,NV,1,10.1.5,39.297349999999994,-114.84115,1908.85,49.86906533162676,3.909388113505881,-3.1605340517087406,20.39678135523438,23.557315463793543,7.732003092628192,1903.93420768439,0.23244056370402677,0.07777777777777778,0.21293105863263,0.105625415484973,0.116456723358097,10,11,12,13,15,25,32,37,43
10.1.5.0089,EMIGRANT PASS HWY STN,NV,1,10.1.5,40.6582,-116.30945,1756.25,97.88117181894907,4.583139453682355,-2.5327809196633493,21.850499586879742,24.3832806153744,8.505873411940367,1849.779770714073,0.43676870788645356,0.05405405405405406,0.333072555117041,0.195667308442176,0.111501253157851,17,19,21,23,27,42,56,65,77
10.1.5.0090,EUREKA,NV,1,10.1.5,39.5169,-115.9622,1959.9,76.28916589267979,4.334530934665514,-2.8106211858785515,20.352520168291875,23.163141826948735,7.644500150710496,2018.9337579199657,0.4959927433010625,0.0784313725490196,0.473947588607123,0.19844350051779,0.104542475770272,20,22,24,26,29,44,58,67,78
10.1.5.0094,GERLACH,NV,1,10.1.5,40.6517,-119.3578,1205.2,66.03806866027688,4.190231373625448,-0.10502111952048619,23.5837093259646,23.688730942103113,11.023579309454325,1203.3101120015826,0.10348621284865475,0.06666666666666667,0.100081054933274,0.0627017290501068,0.167008677644479,6,6,7,8,9,17,24,28,33
10.1.5.0096,GIBBS RCH - JARBIDGE 24SE,NV,1,10.1.5,41.5697,-115.2111,1816.6,80.15344637245892,4.383942877163681,-5.124728462147258,18.549928175626686,23.674656739153328,6.133568530305141,1840.1046088889984,0.2851499827352127,0.08333333333333333,0.335784585872019,0.213125686600242,0.134609769439256,18,21,23,25,29,49,67,79,94
10.1.5.0097,GOLCONDA,NV,1,10.1.5,40.9567,-117.4922,1339.3,58.86453807074096,4.075238839234289,-1.1839199656075308,23.02265142856116,24.20657182189159,9.966570542411475,1339.3743671492641,0.1239578695868397,0.08888888888888889,0.113267613687446,0.0583013117130092,0.160388949034159,5,6,7,8,9,16,22,26,30
10.1.5.0098,GOLDFIELD,NV,1,10.1.5,37.7081,-117.2331,1734.3,37.94702301564809,3.6361910558542174,0.12382432552687944,23.903839881219056,23.780016371580142,11.254952363634715,1733.8959985676133,0.16466906049871494,0.0784313725490196,0.142287677383889,0.0887613113027615,0.25,8,10,11,12,15,32,49,62,80
10.1.5.0099,GREAT BASIN NP,NV,1,10.1.5,39.0028,-114.21865,2084.25,92.88855102952405,4.531390731652012,-1.7298577539466833,21.899291322759048,23.62914895600491,8.716894672943429,2094.3724287463415,0.7140291484619621,0,0.612353538619964,0.298399236235186,0.0512177608498317,28,31,33,36,40,56,71,81,91
10.1.5.0101,HAWTHORNE AP,NV,1,10.1.5,38.55,-118.6667,1286.3,37.820999692722744,3.632864495792728,1.8900399890500135,25.689360541895653,23.799321147938336,13.079639929337727,1269.0839992353017,0.0735422532818363,0.11764705882352941,0.0749326877724941,0.0390125172692557,0.243901694416132,4,4,5,6,7,15,22,27,34
10.1.5.0103,IMLAY,NV,1,10.1.5,40.6564,-118.1631,1298.4,68.33232934392153,4.224382997834384,-1.088200030452689,23.474767360221954,24.562967024463738,10.309294298963557,1286.456478134326,0.13031756266625918,0.11475409836065574,0.12543703045938,0.0600254896232341,0.170370935796282,6,7,7,8,9,17,24,28,32
10.1.5.0104,JIGGS 3 N,NV,1,10.1.5,40.45,-115.65,1652.9,77.52999882393719,4.3506649430617355,-3.880000116159876,19.639999388888416,23.52000045872251,7.219999790951669,1713.9999996363117,0.601306137528257,0,0.498360091560036,0.269166835695282,0.117298044638395,25,28,30,34,38,61,82,95,110
10.1.5.0108,KINGS RVR VLY - OROVADA 26NW,NV,1,10.1.5,41.7436,-118.2258,1292.4,73.90054466722937,4.302720198254862,-1.7897772419800786,22.00785745969634,23.797633785172522,9.45502273495839,1290.6382721019695,0.2098882122306682,0.029411764705882353,0.194257303846407,0.0951778905182847,0.192240208084774,10,11,12,13,15,29,40,48,59
10.1.5.0110,LAHONTAN DAM,NV,1,10.1.5,39.4689,-119.0644,1270.1,35.49428714969495,3.569371758170789,0.9157062421858855,24.718203418892813,23.802497064461395,12.054675299795708,1270.6893767313036,0.10299338028949216,0.2391304347826087,0.10485466510439,0.0524101271115592,0.208529626344348,5,6,6,7,8,17,23,28,34
10.1.5.0114,LAMOILLE PH,NV,1,10.1.5,40.6833,-115.4667,1918.1,124.39361917212726,4.823450886160998,-3.6494831331888116,17.735060623016995,21.38454328316037,5.933347484039278,2230.5691012899197,0.9803280469373393,0,0.902931420601586,0.36831707583031,0.1032585444936,38,43,46,50,56,85,112,129,149
10.1.5.0115,LEONARD CREEK RCH - DENIO 33S,NV,1,10.1.5,41.5167,-118.7192,1292,82.3979290501881,4.411560303713523,-0.8172329612667935,22.756579097675484,23.57381169231753,10.197584769475926,1320.2531542829458,0.16774149902983804,0.023809523809523808,0.154853581339291,0.0989073601543684,0.182710172400824,9,10,11,13,15,28,38,46,56
10.1.5.0116,LOVELOCK,NV,1,10.1.5,40.17,-118.4775,1211,44.05760079697711,3.7854978868043543,-0.3889999963602181,23.822599753231398,24.211599464681406,10.994999884939073,1211.2600001801297,0.06962281159391168,0.2647058823529412,0.0799308740184522,0.0469597063601833,0.196961134495438,4,5,5,6,7,14,20,24,29
10.1.5.0117,LUND,NV,1,10.1.5,38.8678,-115.0167,1690.4,57.37653712974028,4.049635458954131,-1.651359975547764,21.587325529834736,23.238685180179573,9.21593105179969,1692.6634564037681,0.19386784412354957,0.025,0.172650549634652,0.0857701180032924,0.10485145148541,8,9,10,11,12,20,26,29,34
10.1.5.0119,MCGILL,NV,1,10.1.5,39.4136,-114.7733,1911.1,44.98789703692946,3.806393498860608,-2.990631396952635,20.63384514009977,23.624476853382355,7.887027163215183,1905.8088631788994,0.2037757640022554,0.05128205128205128,0.194158285936979,0.0934477001452918,0.121256153906186,9,10,11,12,14,23,30,34,39
10.1.5.0122,MINA,NV,1,10.1.5,38.3878,-118.1092,1396,36.23192367986185,3.5899405998226217,1.2942272147957237,25.455902254920062,24.161674861138742,12.64190213828622,1396.2265590377415,0.0703574404176352,0.2638888888888889,0.0760331678709687,0.0448453144901464,0.25,4,5,5,6,7,16,24,29,37
10.1.5.0123,MINDEN,NV,1,10.1.5,38.9547,-119.7758,1435.3,107.56274365417173,4.678074339202631,0.7343600142248115,21.035347254585133,20.300987613246996,10.173400153309789,1437.147999896942,0.23313140905458712,0.1282051282051282,0.226445561661854,0.129501411066561,0.201234377097541,12,14,15,17,20,38,54,67,84
10.1.5.0124,MONTELLO 2NE,NV,1,10.1.5,41.2781,-114.1706,1472.2,43.501695480569104,3.772799913899879,-4.2024041338355556,22.48423997374394,26.686644385457367,8.535644471958975,1475.1987518738947,0.14933233341078006,0.0821917808219178,0.127678583178789,0.0764092873904307,0.18484561941405,7,8,9,10,12,22,30,36,44
10.1.5.0128,NORTH FORK MNTC STN,NV,1,10.1.5,41.4833,-115.8167,1891,96.36298645904864,4.568122169992108,-5.7895988489268335,17.68039965313797,23.46999944624068,5.43031966298732,1877.956256600959,1.0373096335281913,0,0.760873754756979,0.413153931675436,0.0375286070546347,36,40,43,47,52,74,94,106,120
10.1.5.0130,OROVADA 3 W,NV,1,10.1.5,41.5683,-117.8389,1280.2,70.04549240439236,4.249144922452654,-1.3233200492784754,21.933360382094907,23.256680152900483,9.526679973609706,1280.7999999165902,0.1584497834991552,0.10666666666666667,0.138384545420045,0.0726593903615469,0.183535865028802,7,8,9,10,11,21,29,34,42
10.1.5.0132,PARADISE VALLEY 1 NW,NV,1,10.1.5,41.5022,-117.5478,1389.9,113.46262027286357,4.731473445875219,-1.6087539359165028,21.256663189079347,22.865417691333445,9.036663174620951,1393.805696420877,0.27021435071448474,0.01818181818181818,0.231422751897862,0.128491009985279,0.168597575328369,12,14,15,17,20,34,47,56,67
10.1.5.0135,PINE VALLEY - CARLIN 20S,NV,1,10.1.5,40.435100000000006,-116.11779999999999,1557.8,76.81749520883426,4.341432302504707,-3.5686598542295287,20.095360290332522,23.664019874193464,7.711880140277762,1573.0952400159483,0.22369394755913843,0.09302325581395349,0.210166461034278,0.101341069403914,0.138906045758819,10,11,12,13,15,25,33,39,45
10.1.5.0136,PIOCHE,NV,1,10.1.5,37.9339,-114.4522,1825.8,106.29697359890496,4.666236814565425,0.288491816532299,23.429805268196333,23.141313897748038,10.905483814946868,1832.1412439817045,0.45160564423278915,0,0.349841956864849,0.222249460779217,0.14312310343449,20,22,24,28,32,53,74,87,104
10.1.5.0143,RUBY LAKE NWR,NV,1,10.1.5,40.2022,-115.493,1834.6,109.86795629345252,4.699279247406197,-3.119503963079034,20.2290878549661,23.34859190425729,7.725392123129657,1861.9545606196698,0.5204824733143701,0,0.411424245230882,0.187353753791888,0.120864271119482,19,21,23,25,28,44,58,68,78
10.1.5.0144,RUTH,NV,1,10.1.5,39.2764,-114.9911,2090.3,79.9862257205617,4.381854441356484,-4.065531771203448,19.612331526787763,23.677863295267517,6.633673814810474,2111.216639199927,0.6236997032201256,0,0.519454015232267,0.244404669960475,0.0797202563527042,23,26,28,31,34,50,65,75,85
10.1.5.0146,RYE PATCH DAM,NV,1,10.1.5,40.4661,-118.3047,1260.3,63.57499725950174,4.152220268201643,-0.9578800054913668,23.160616095986434,24.118496208906386,10.407232970504543,1272.7877603791976,0.09622078925873752,0.2857142857142857,0.0986165422663415,0.0599247222179319,0.181074618465551,5,6,6,7,8,16,23,27,32
10.1.5.0147,SAND PASS,NV,1,10.1.5,40.3167,-119.8,1189.9,71.25716212107626,4.266295335094425,0.030080000728126534,23.220279324238177,23.190198641998105,10.94019958434227,1184.9679994771775,0.1333648623860366,0.20930232558139536,0.126685080881853,0.0734084125026006,0.15307911227936,6,7,8,9,10,19,25,30,34
10.1.5.0157,SNOWBALL RCH,NV,1,10.1.5,39.0403,-116.1989,2182.4,46.25564989834559,3.8341836164617424,-2.2139246494599183,19.497006334032807,21.710930829390442,7.394423440526115,2207.604717634363,0.34936635666779675,0,0.296857685693599,0.146635930173263,0.10849127453491,14,16,17,19,21,33,43,49,55
10.1.5.0160,SPRING VALLEY SP,NV,1,10.1.5,38.0406,-114.18,1813.6,80.33820675062421,4.386245307928031,-1.422032000845626,22.62019249756829,24.042225070046328,9.744959757842842,1809.9055994624869,0.317377674414697,0.027777777777777776,0.274994393061106,0.120798300674144,0.146963024745617,12,14,15,17,19,31,41,48,56
10.1.5.0163,SUNNYSIDE - LUND 31S,NV,1,10.1.5,38.4231,-115.0225,1614.5,48.994212363143426,3.891702176096607,-0.7763160230097982,22.622095662910404,23.398411253905707,10.212743767386522,1621.6823989758336,0.18885100710930872,0.09090909090909091,0.153399477657726,0.0637433605859943,0.113072755069791,6,7,8,9,10,16,21,24,27
10.1.5.0164,SUTCLIFFE,NV,1,10.1.5,39.9508,-119.5986,1188.7,62.82336616877189,4.140327077023397,1.803429744119194,23.94790360839527,22.144473275843882,11.856305833162443,1174.026430949849,0.11250588337051262,0.15151515151515152,0.11315694256356,0.065731746627007,0.169533786707419,6,7,7,8,10,18,25,29,35
10.1.5.0166,TOPAZ LAKE,NV,1,10.1.5,38.7394,-119.5181,1613,95.11745954960668,4.555112544179005,0.7498399996322708,20.72876870972183,19.97892832051364,9.92190771847866,1624.9043549635303,0.274613515085348,0.0967741935483871,0.229174213159573,0.110259902653742,0.199005921915849,11,13,14,15,18,33,47,58,71
10.1.5.0168,VIRGINIA CITY,NV,1,10.1.5,39.3128,-119.6483,1932.4,163.99691113671514,5.0998475931146015,0.7232562814209296,20.79238964537436,20.069133255683784,9.58506934189136,1897.810499766584,0.7322354780852063,0,0.595670504660957,0.423611794904049,0.149568864505113,36,42,46,51,59,107,147,174,204
10.1.5.0172,WELLS,NV,1,10.1.5,41.1006,-114.9736,1737.4,71.38171169797592,4.268041697852612,-4.217438133610448,19.734247617372453,23.951686424414152,7.110122978088422,1728.4639995004807,0.3020273778122007,0,0.2641390389222,0.132358658756927,0.176090435172432,13,15,16,18,21,37,52,62,75
10.1.5.0173,WILD HORSE RSVR,NV,1,10.1.5,41.6358,-115.8008,1901.6,111.64728841966928,4.715344691557474,-6.491332394700157,16.963527486139434,23.454860325450195,4.73079985270091,1899.086335613424,1.7279114889732643,0,1.33507099112847,0.808597902650545,0,66,73,78,85,94,132,165,182,202
10.1.5.0175,YERINGTON,NV,1,10.1.5,38.9992,-119.1575,1335,34.48539113854525,3.5405357890994953,0.27278400864747754,23.329903921585693,23.05711956689742,11.23086356139589,1334.1919998614562,0.07324590144784802,0.2,0.0835448874397206,0.0516245487804358,0.228003024331058,4,5,6,7,8,17,25,31,38
10.1.5.0176,ALPINE,UT,1,10.1.5,40.4644,-111.7708,1554.5,154.58008501594466,5.040712311658808,-1.8597382328209267,23.328854630014966,25.1885926153154,10.134741972025962,1547.897090621584,0.4864002143705316,0.0196078431372549,0.426393108312925,0.179260769171417,0.120222147654677,18,21,22,24,27,42,55,64,76
10.1.5.0179,BEAR RIVER REFUGE,UT,1,10.1.5,41.4667,-112.2667,1284.1,86.28071670733364,4.4576061282473916,-3.0899999141693115,24.15987984873869,27.249880001326577,10.280039573583846,1282.9999999999998,0.2044527562193195,0,0.170115287839474,0.113858056135458,0.201205931327141,10,12,13,15,18,34,49,60,74
10.1.5.0180,BEAVER,UT,1,10.1.5,38.3,-112.65,1810.5,68.31999970595429,4.224202545176366,-2.0599999425033335,21.63999938198821,23.69999884765438,9.07999991996009,1820.0000008320565,0.22440936337804393,0.09259259259259259,0.19297308063781,0.112428070181428,0.154198224646175,10,11,13,14,16,28,38,45,53
10.1.5.0181,BENMORE,UT,1,10.1.5,40.0333,-112.4167,1815.1,85.59220230317146,4.4495941844092135,-3.010519821748286,21.60952045588318,24.620040512262136,8.219520276374599,1778.0600308881717,0.4015437737930887,0,0.333594158469268,0.172851859686954,0.139574577722008,17,19,20,23,26,42,57,67,79
10.1.5.0183,BLACK ROCK,UT,1,10.1.5,38.7075,-112.9539,1498.4,51.014908667926036,3.9321179168272447,-2.271463979599222,23.58357200502769,25.85503569299329,10.194211676872563,1495.6416002267413,0.20912997833490615,0,0.184275288189602,0.0813848031416245,0.136592131413362,8,9,10,11,13,21,28,32,37
10.1.5.0184,BOUNTIFUL-VAL VERDA,UT,1,10.1.5,40.8547,-111.8903,1383.8,143.92842270503658,4.969316111450109,-1.3916399844486003,24.937295116816745,26.32893454431955,11.088935047537143,1387.5575825823378,0.3987347073326525,0,0.365311898720151,0.142852541746684,0.14601946128649,16,17,19,21,23,37,50,58,68
10.1.5.0186,BRIGHAM CITY,UT,1,10.1.5,41.4833,-112.0333,1324.1,144.1802142411565,4.971064004903727,-3.170360557615667,23.849639418090543,27.01999997667131,10.069639056350349,1301.0600959047704,0.4175376212198362,0,0.336346270282945,0.18798811806833,0.147237005477887,17,20,22,24,28,46,64,75,89
10.1.5.0187,BRIGHAM CITY WASTE PLT,UT,1,10.1.5,41.5242,-112.0436,1292.4,118.56408794449078,4.77545364091701,-3.1440000512047077,23.892542167319725,27.036542091144007,10.106000297428134,1290.569727871623,0.2920529616001371,0,0.265256995658235,0.144518048618662,0.160814816986987,14,16,17,19,22,37,52,62,74
10.1.5.0188,CALLAO,UT,1,10.1.5,39.8997,-113.7128,1323.4,27.023447328292953,3.296704908712628,-2.699807088269271,24.348727393906266,27.04853519283076,10.438560076429107,1321.790591560466,0.14438477741522576,0.1346153846153846,0.131600658719327,0.0741503202478437,0.101018865355329,6,7,8,9,10,16,22,25,28
10.1.5.0191,CEDAR CITY POWERHOUSE,UT,1,10.1.5,37.6833,-113.0833,1731.9,68.80508730542172,4.231277685598378,-0.9602001398510497,23.00900199936187,23.96920124967705,10.199360775558985,1742.1677419682821,0.26096686779386896,0.045454545454545456,0.22858080607392,0.132617741428661,0.181195126921368,12,14,15,17,20,36,52,62,76
10.1.5.0193,CORINNE,UT,1,10.1.5,41.5481,-112.1106,1289.3,114.56187513982763,4.741115071268214,-3.1752599136951147,23.868860533724664,27.0441205728242,10.094920364554486,1289.0699844039186,0.32578045453132026,0.016129032258064516,0.273457223088167,0.188548651143998,0.177428335767708,17,19,21,24,28,51,73,88,106
10.1.5.0195,CUTLER DAM,UT,1,10.1.5,41.8331,-112.0578,1307.6,122.987878969439,4.812085805552633,-4.434381628754449,22.67960936997911,27.11399104089357,8.902232613570831,1367.3994885941358,0.40003507166620167,0,0.33317929535821,0.228595899609748,0.160455606387101,20,23,25,28,33,58,83,99,118
10.1.5.0197,DESERET,UT,1,10.1.5,39.2872,-112.6519,1399,48.15758255934779,3.874478603713871,-3.0522799498657927,24.37278186563412,27.425061154603604,10.201057753511872,1397.3715839758047,0.130715677603962,0.17391304347826086,0.122662617758289,0.0711724093734611,0.149250395617966,6,7,8,9,10,18,24,29,34
10.1.5.0200,DUGWAY PROVING GROUNDS,UT,1,10.1.5,40.1836,-112.92750000000001,1326.65,44.333134521694454,3.7917229909988928,-2.5718745707153783,25.71368980890845,28.285564563555184,10.96163999543958,1322.9865441355319,0.1320229773699113,0.022222222222222223,0.102546802732314,0.0486823083361324,0.157315335275432,5,5,6,7,8,14,19,22,25
10.1.5.0201,ELBERTA,UT,1,10.1.5,39.95,-111.95,1429.5,74.62000281308153,4.312408605491772,-2.2100000358377905,24.250000004618414,26.459999086782034,10.609999660244352,1418.9999992964588,0.19411989261979568,0,0.16032370228054801,0.0940857178468203,0.150901385332924,9,10,11,12,14,24,33,38,45
10.1.5.0202,ENTERPRISE,UT,1,10.1.5,37.5764,-113.715,1621.5,110.53265293826783,4.7053109790095595,-1.2793759883048026,22.6602881089846,23.93966484268117,9.95363182914972,1622.132800061779,0.40642024304410357,0.017543859649122806,0.332295666229904,0.19522487679191,0.182752691875917,18,21,23,26,30,54,78,95,115
10.1.5.0203,ENTERPRISE BERYL JCT,UT,1,10.1.5,37.7697,-113.6556,1569.7,61.78757420593919,4.123702279618627,-1.8691939279264427,22.79699378069255,24.666187829590605,9.772359903557103,1570.7553919653342,0.21961273411556903,0,0.179373206889148,0.0892094958450532,0.178590847348053,9,10,11,12,14,26,35,42,51
10.1.5.0204,ESKDALE,UT,1,10.1.5,39.1078,-113.9533,1517.9,26.76902679060941,3.2872455023928784,-2.0424265210188244,23.931147161809363,25.97357398738601,10.42782707263251,1521.7733441023242,0.15294208124217057,0.05714285714285714,0.148470722985285,0.0795111246224759,0.101198525346329,7,8,9,10,11,18,23,27,30
10.1.5.0205,EUREKA,UT,1,10.1.5,39.95,-112.1167,1975.1,134.72531991846424,4.903238038420298,-2.719160036396985,21.490759768145054,24.209919093101007,8.440839574067217,2012.8240015749664,0.9314349872852248,0,0.832837679011184,0.521983197651963,0.0915433598209044,45,50,55,61,69,109,144,165,190
10.1.5.0206,FAIRFIELD,UT,1,10.1.5,40.2622,-112.0897,1487.4,85.15814105828298,4.444510010974004,-2.4744550681625133,22.81790481224075,25.2923600524308,9.647809592195125,1486.1824958759767,0.2583241187879199,0,0.203346546029923,0.107574908459072,0.151919611330977,10,12,13,14,16,28,37,43,52
10.1.5.0207,FARMINGTON 3 NW,UT,1,10.1.5,41.0203,-111.9328,1335,130.23938650930745,4.869374191780202,-1.640476155614353,24.823687375320613,26.464163896588914,11.028605023546957,1336.251136830183,0.37602603064342655,0,0.349062531956335,0.150893936896534,0.154120358751531,16,18,19,21,24,39,54,65,77
10.1.5.0208,FILLMORE,UT,1,10.1.5,38.9603,-112.3239,1562.7,106.15428684276955,4.6648935720984905,-1.9437746033739303,23.78312036597254,25.726895098063803,10.423368661367528,1570.5713919916902,0.41798318269788876,0.10465116279069768,0.362828722846881,0.18867547695618,0.146098279010067,17,20,22,24,28,46,63,75,89
10.1.5.0209,FISH SPRINGS NWR,UT,1,10.1.5,39.84,-113.3978,1328,31.625567814458712,3.4539659014938926,-1.9710560255840983,25.836128134873718,27.80718469413395,11.259872152668816,1329.9727983644684,0.13565937451912952,0.05555555555555555,0.121747760871006,0.0630521659500118,0.108537848855451,6,7,7,8,9,15,20,23,26
10.1.5.0210,GARFIELD,UT,1,10.1.5,40.7242,-112.1975,1310,97.39920555618592,4.578818054107893,-1.2488559973175923,25.703456507891797,26.952312100279215,11.446456102666437,1314.3551921959156,0.23655935330424174,0.0196078431372549,0.201947885618438,0.0891620403466839,0.179378556114345,9,11,11,13,15,26,36,42,50
10.1.5.0211,GARLAND 1 NE,UT,1,10.1.5,41.756100000000004,-112.1517,1322.8,103.2331140345399,4.636989674006626,-4.079426996624665,23.198053591526858,27.277480384706138,9.323413193752142,1324.9360000517122,0.27746995958130544,0,0.257824779693389,0.130882788841845,0.183563092127259,13,15,16,18,21,37,53,63,78
10.1.5.0212,GARRISON,UT,1,10.1.5,38.9333,-114.0333,1603.2,46.065201754326935,3.830057822326121,-1.8100391434274683,23.350280058502246,25.160318725582744,10.200159656383427,1613.9720313250382,0.242006840146188,0.08108108108108109,0.184547314038084,0.116445448202363,0.0962979656457697,10,11,12,13,15,24,32,36,41
10.1.5.0213,GENEVA STEEL 2,UT,1,10.1.5,40.288349999999994,-111.7351,1381.35,92.9300527954184,4.531660161931853,-1.8389600351885746,24.474576609318778,26.3135367351064,10.993119899936485,1383.5196566895215,0.16903341834597121,0,0.154755013690071,0.087238583878279,0.135916447686906,8,9,10,11,13,22,29,33,39
10.1.5.0215,GOVERNMENT CREEK,UT,1,10.1.5,40.05,-112.6667,1610,81.27931869620978,4.397891601612582,-2.419880080947365,23.330159924807813,25.75004000289412,9.440119582315875,1638.015998996303,0.30066406872093837,0,0.277080663719979,0.0969272561539287,0.143559163401956,11,12,13,15,16,26,34,40,46
10.1.5.0216,GRANTSVILLE 2W,UT,1,10.1.5,40.6019,-112.5075,1386.8,65.5538442279712,4.182871854225755,-1.859319996442369,25.028676000079503,26.88799530653855,10.73158780285768,1382.2015975256706,0.22469016694981345,0.01694915254237288,0.186568277678224,0.0897592170800868,0.18394175350098,9,10,11,13,15,26,37,44,52
10.1.5.0218,GROUSE CREEK,UT,1,10.1.5,41.7139,-113.8694,1621.5,67.99613082465444,4.219450803919826,-4.21122198569785,20.466480083658464,24.677701485509253,7.381977923363362,1643.3971836287337,0.4134928346253753,0.023255813953488372,0.301263221199635,0.192970595421169,0.178984568052422,17,20,22,25,29,52,76,92,113
10.1.5.0220,IBAPAH,UT,1,10.1.5,40.0378,-113.9886,1609,47.35756582844537,3.8577265920514345,-2.7465625657063977,22.22216025224796,24.96872273599946,9.007040162411563,1609.1599997310773,0.27682298346132655,0,0.216370618646661,0.114019106893266,0.0970762549229417,11,12,13,14,16,25,32,37,42
10.1.5.0222,JOHNSON PASS,UT,1,10.1.5,40.3375,-112.6114,1700.8,117.67656218944546,4.767939862656453,-2.0189999742270617,23.539359718766875,25.558359313431474,9.728079804564693,1737.7800044614783,0.48965451255832576,0,0.411782055010159,0.171666117625997,0.141770796606148,18,20,22,24,27,43,59,69,81
